"","business_id","avg_worktime","workday","numbers_category","BikeParking","BusinessAcceptsCreditCards","ByAppointmentOnly","Pricerange","number_Pway","sumcheckin","name","neighborhood","address","city","state","postal_code","latitude","longitude","stars","review_count","is_open"
"1","-0GU6ghA7z4-xotUZfXl1w",10.1428571428571,7,2,"1","1","0","2",1,54,"Sport Clips Haircuts - Chandler","","800 N 54th St","Chandler","AZ","85226",33.3157,-111.969,5,7,1
"2","-1PwcnMwaztBRKah7lrWBg",10.4285714285714,7,4,"0","1","0","2",0,8,"Ulta Beauty","","301 South Hills Village","Pittsburgh","PA","15241",40.3426,-80.0562,4,7,1
"3","-2Mwx1Mp10HTLlazfCBKdA",9.28571428571429,7,5,"0","1","0","2",0,6,"Nail Secrets","","2412 Ferguson Rd","Hampton Township","PA","15101",40.555,-79.9721,4,12,1
"4","-2wfiUn6AZm2KO0FJYakVQ",10.6666666666667,6,4,"1","1","0","2",1,36,"Men's Ultimate Grooming","","734 N Mcqueen Rd, Ste 103","Gilbert","AZ","85233",33.3635,-111.825,4,24,1
"5","-37_L44VjFw1U4tBfBDHRw",12,7,2,"1","1","1","2",1,8,"Cloud Nine Wellness Spa","","3301 N Miller Rd, Ste 5","Scottsdale","AZ","85251",33.4864,-111.917,2,5,1
"6","-4cA4Kt0UKzGYimrZsYuQg",9.28571428571429,7,2,"1","1","0","2",1,34,"Nails Up Spa - Highland Creek","","13024 Eastfield Rd","Huntersville","NC","28078",35.3839,-80.7861,2.5,12,1
"7","-5CXrj2zoTVcZG9NdCtJaw",9.6,5,2,"1","1","1","1",1,5,"Barber Shop Styles","","4114 Saw Mill Run Blvd","Pittsburgh","PA","15227",40.3668,-79.9843,5,5,1
"8","-5FndHRwNg-xhPsctrhTbA",9.28571428571429,7,2,"0","1","0","2",0,13,"NOA Nail Spa","","9900 Poplar Tent Rd, Ste 110","Concord","NC","28027",35.419,-80.7427,3,8,1
"9","-5MrVsxY-9Z0ykQueccwFg",9.57142857142857,7,3,"1","1","0","2",0,13,"Tatum Ranch Barbershop","","29850 N Tatum Blvd, Ste 104","Cave Creek","AZ","85331",33.756,-111.993,4.5,20,1
"10","-5UH4lDjDzed89E8HwnGfw",9,5,4,"1","1","1","2",1,2,"Beauty By April Russell","","7155 W Campo Bello, Bldg A, Ste 19a","Glendale","AZ","85308",33.6418,-112.214,5,3,1
"11","-6AFQalhxzBHv6flajuo_w",10,6,4,"1","1","0","2",0,5,"Best Beauty Salon","Westside","3620 W Sahara Ave","Las Vegas","NV","89102",36.1457,-115.19,3.5,17,1
"12","-6g2TeogX9CCeJfU7nNKWQ",9.57142857142857,7,6,"1","0","0","1",0,2,"Estilo 5","","4585 W, Fl amingo","Las Vegas","NV","89147",36.1154,-115.217,5,6,1
"13","-6pbHNi0J3m2PiXhldxtLA",9.6,5,2,"0","1","1","2",0,7,"David Gerard Salon","","13025 W Rancho Santa Fe Blvd","Avondale","AZ","85392",33.4617,-112.336,4.5,21,1
"14","-6wyNW0SzFjVNlDtzTD3Ow",5.14285714285714,7,5,"1","1","1","2",2,37,"GingerHoney Skin Care","","2200 W Bethany Home Rd, Ste 4B","Phoenix","AZ","85015",33.5243,-112.107,5,5,1
"15","-82Z0wTA-nOCLUVD4XXIBA",9.57142857142857,7,2,"1","1","0","2",1,71,"Liberty Nails","","710 W Elliot Rd, Ste 105","Tempe","AZ","85284",33.3495,-111.949,3,29,1
"16","-8SG5t1yznyU0fy6_CWNDA",10,6,2,"1","1","0","2",1,7,"Juno Hair","","616 E Green St, Ste C","Champaign","IL","61820",40.1102,-88.2291,3,15,1
"17","-8wkc-r4A1NVlGOIQOAvxQ",10,1,2,"1","1","0","2",0,3,"Pro Nails Spa","","200 Dobys Bridge Rd, Ste 156","Fort Mill","SC","29715",35.0066,-80.9354,2,4,1
"18","-AYIgCzZPVr7OMcfELjcAg",7.16666666666667,6,2,"1","0","0","1",1,10,"King's Barber Shop","","104 S McCullough St","Urbana","IL","61801",40.112,-88.2129,4.5,11,1
"19","-AeZXaqxrLxxXEVH9KmK-g",9.28571428571429,7,2,"0","1","0","2",0,27,"PQ Nails & Spa","","43 S Stephanie St, Ste 130","Henderson","NV","89012",36.0275,-115.049,4,42,1
"20","-BS5c6tvU9gc3JAwopiXtA",10,7,8,"0","0","1","1",0,8,"Beauty in Vegas","","","Las Vegas","NV","89101",36.1697,-115.124,3.5,14,1
"21","-CC1wZQ19hO3ol2JDeGA3w",9.6,5,2,"1","1","1","1",1,2,"Delectable Hair Designs by Marcella","Northwest","3211 N Tenaya Way, Ste 110, Blend Salon And Spa","Las Vegas","NV","89129",36.2198,-115.252,5,19,1
"22","-DgLrAuOKilHSeH8gFheEw",9.5,6,4,"1","1","0","2",1,117,"Lora Moon Styling","","10401 E McDowell Mtn Ranch Rd, Ste 140","Scottsdale","AZ","85255",33.6282,-111.855,5,79,1
"23","-EX863eYHS-cutthfYhG7A",10.5,6,2,"1","1","0","3",1,29,"Studio Booth","East Liberty","6343 Penn Ave","Pittsburgh","PA","15206",40.4592,-79.9193,4,40,1
"24","-EmzCq1b_diV2e8HJilTlQ",10.6666666666667,6,3,"1","1","1","2",0,59,"J Anthony Salon & Spa","","20811 N Cave Creek Rd","Phoenix","AZ","85024",33.6752,-112.03,5,60,1
"25","-FRzFwd76Et2mr0wkpngEA",10.1428571428571,7,2,"1","1","0","1",1,21,"Arizona Hair Co","","3941 E Chandler Blvd, Ste 104","Phoenix","AZ","85048",33.3038,-111.998,2,9,1
"26","-I_ZiWYitmgycPdjMsuUcg",7,4,3,"1","1","0","1",0,2,"Village Salon","Anthem","10905 S Eastern Ave, Ste 104","Henderson","NV","89052",35.9943,-115.102,5,12,1
"27","-J3_fJ9_p_12aVYA4sSBIA",11,7,2,"1","1","1","2",0,2,"Revival Hair Lounge","Ballantyne","12335 N Community House Rd, Ste D-9","Charlotte","NC","28277",35.0698,-80.8423,5,7,1
"28","-JuHqV9ZIfc0U5JVsicYDw",14.7142857142857,7,2,"1","1","0","1",1,179,"Walgreens","","1142 W Guadalupe Rd","Mesa","AZ","85210",33.3648,-111.858,3,5,1
"29","-KO6zDZn1t3vLl0xY21aug",9.71428571428571,7,3,"1","1","0","1",0,97,"Fantastic Sams","Southwest","8020 S Rainbow Blvd, Ste 105","Las Vegas","NV","89139",36.0431,-115.242,4,40,1
"30","-Mfl5hIEqbI37cgGVPlRrg",10.6666666666667,6,2,"0","1","0","1",0,14,"Danny's Barber Shop","","2637 W Bethany Home Rd","Phoenix","AZ","85073",33.524,-112.116,4,13,1
"31","-NVarOq5E4htuA3Q3OEUnw",9.42857142857143,7,2,"1","1","0","2",1,51,"Royal Nails And Spa","Northwest","3350 Novat St","Las Vegas","NV","89129",36.221,-115.329,4,50,1
"32","-QA_nOdfBoMD-AXeeew3dQ",11,7,2,"0","1","0","1",0,13,"Great Clips","","835 W Warner Rd, Ste 114","Gilbert","AZ","85233",33.334,-111.808,1,3,1
"33","-QK041S1Clr0N4m3adwRpA",9,6,4,"1","1","0","2",2,175,"Hottie Hair Salon & Extensions Store","Westside","7871 W Charleston Blvd, Ste 130","Las Vegas","NV","89117",36.1587,-115.263,4,100,1
"34","-RBS7znoOzfB8siQPc1_Nw",8.4,5,2,"1","1","0","2",1,11,"Salon E and Boutique","","6501 E Greenway Pkwy, Ste 156","Scottsdale","AZ","85254",33.6252,-111.94,4.5,16,1
"35","-RmXB5nIycequPUB6kxdGg",12,7,2,"1","1","1","2",0,1,"On The Run Massage","","","Phoenix","AZ","85014",33.5083,-112.057,5,10,1
"36","-SJBKfo4OpWhbEqvMpN_nA",8.33333333333333,6,6,"1","1","1","2",1,10,"Beyond Beauty Skincare","","1631 E Guadalupe Rd, Ste 106","Tempe","AZ","85283",33.3633,-111.914,5,8,1
"37","-SNEYS8erOwt9SkPFO3sTA",7.57142857142857,7,2,"1","1","0","2",2,20,"Urban Kutz Barbershop","Old Brooklyn","4491 Pearl Rd","Cleveland","OH","44109",41.4335,-81.7111,5,10,1
"38","-UFf6RHGrzT5kLA33buMYg",8,5,2,"1","0","0","2",0,12,"Colossus Tattoo","","225 W University, Ste 110","Tempe","AZ","85281",33.4217,-111.943,5,5,1
"39","-VYeIQ3ssYWhs0TGpmUtXg",12,6,2,"1","0","1","2",0,1,"Firehouse Tattoo","","364 E Main St","Stoughton","WI","53589",42.917,-89.2171,4.5,3,1
"40","-VcT4wkfyiYEX3XZR51Apw",13.4285714285714,7,2,"1","1","0","2",1,54,"Palm Beach Tan","","2558 Wigwam, Ste C","Henderson","NV","89074",36.0361,-115.098,2.5,26,1
"41","-VnsYKUddm8eUr4k_bYf0g",9.42857142857143,7,2,"0","1","0","2",1,13,"In 2 Nails","","9526 Birkdale Crossing Dr, Ste 22","Huntersville","NC","28078",35.4435,-80.8863,3,27,1
"42","-XKf6zmskFBPm_ClDl8qgQ",10,5,5,"1","1","0","2",2,3,"Signature Style Hair Studio","","20035 Jetton Rd, Ste C","Cornelius","NC","28031",35.4808,-80.8835,5,4,1
"43","-XLjdLpTLJ672EMN5Dfrhg",9,6,2,"1","1","0","2",1,4,"Hakuna Matata Nails and Spa","","15414 N 99th Ave","Sun City","AZ","85351",33.6223,-112.269,4.5,6,1
"44","-Xaq2Fra0d-wHPnGZUfCEQ",9.42857142857143,7,2,"1","1","0","2",0,189,"Bamboo Nails","","4645 E Chandler Blvd, Ste 108","Phoenix","AZ","85048",33.3046,-111.982,3.5,59,1
"45","-ZNTxbUVRg25LhOxEuW4rQ",10.2857142857143,7,8,"1","1","0","2",2,364,"My Pedi Nails & Spa","Spring Valley","5060 S Fort Apache Rd, Ste 160","Las Vegas","NV","89148",36.0967,-115.297,4,267,1
"46","-Z_-e5aK6MdL7_CzM9bKPA",8.2,5,3,"1","1","1","2",1,4,"Jess Morrison","East Liberty","5921 Baum Blvd, Ste 5b","Pittsburgh","PA","15206",40.4605,-79.9272,5,4,1
"47","-Zph5iyNiWdkkq_dLrOC_Q",9.42857142857143,7,2,"1","1","0","2",0,16,"Boutique Nails & Spa","","3790 W Pinnacle Peak Rd","Glendale","AZ","85310",33.6983,-112.142,3.5,20,1
"48","-aIuYy5kZ4YkjzkWUZxrPg",9.33333333333333,6,5,"0","1","0","2",0,8,"Family Nails","","8115 N 19th Ave, Ste 103","Phoenix","AZ","85021",33.5551,-112.099,2.5,5,1
"49","-b9YQ8TqHOAVNbPkN2YScg",8.83333333333333,6,3,"1","1","1","2",1,4,"Laser Med Solutions","","7373 N Scottsdale Rd, Ste C228","Scottsdale","AZ","85253",33.5449,-111.925,2,12,1
"50","-bBaDCDIRoS5VTzUbALyBQ",7.8,5,4,"1","1","1","2",1,15,"Poza Salon","Elizabeth","2314 Crescent Ave","Charlotte","NC","28207",35.2041,-80.8238,4,14,1
"51","-bUNDUWf5VuMPlZ_MrhRAQ",9.66666666666667,6,4,"1","1","0","2",1,94,"Salon Esprit","","6615 W Happy Valley Rd, Ste B108","Glendale","AZ","85310",33.7108,-112.2,4.5,32,1
"52","-boNHP3clSwzToiLWQrBUQ",11.4285714285714,7,5,"1","1","0","1",1,47,"Supercuts","Westside","9811 W Charleston Blvd Ste 3, Hualapai Commons","Las Vegas","NV","89117",36.1579,-115.312,3.5,14,1
"53","-cgOvAOO_XcPlRXjNr_Ydg",9.83333333333333,6,2,"1","1","0","2",3,6,"Luxury Nail& Spa","","115 Calvin St","Savoy","IL","61874",40.0589,-88.2533,4,8,1
"54","-eUE2fJqru1MssR1vla7Gw",10,6,5,"0","1","0","2",0,5,"Barefoot Nail Bar","","2326 Matthews Township Pkwy, Ste B","Matthews","NC","28105",35.1267,-80.7002,4.5,14,1
"55","-fMdqIROzS2V3t5QQPj5-g",9.42857142857143,7,2,"1","1","0","1",0,10,"Davi Nails 1533","","7975 W Peoria Ave","Peoria","AZ","85345",33.5786,-112.23,4.5,5,1
"56","-gRDDhLdkAfki50Dt5P9Og",6,5,6,"1","1","1","2",1,12,"Waxetera","","3514 N Power Rd","Mesa","AZ","85215",33.4802,-111.685,5,30,1
"57","-hGjrHwQrdsZvEcHaJSFGA",8,6,4,"1","1","0","2",0,2,"Her Imports","Fourth Ward","401 N Tryon St, Ste 1117","Charlotte","NC","28202",35.2302,-80.8396,3.5,4,1
"58","-iFhZO-MC-txKps1n0AxSw",12,7,2,"1","1","1","2",0,3,"Studio Baby Salon","","3936 E Chandler Blvd, Ste 216","Phoenix","AZ","85044",33.3069,-111.999,5,10,1
"59","-lmarmK7dC5Ukxg1rzvJDg",10.7142857142857,7,3,"1","1","0","1",1,49,"Kneading Feet Reflexology","","2051 W Warner Rd, Ste 16","Chandler","AZ","85224",33.334,-111.878,4.5,61,1
"60","-m9hL-qdFZ1o3hycETrizA",10.4285714285714,7,4,"1","1","0","2",4,26,"Henna Shoppe","","7014 E Camelback Rd, Ste 2080","Scottsdale","AZ","85251",33.5028,-111.929,5,67,1
"61","-ml57G52t4mQpYRHe54HWQ",9.57142857142857,7,2,"1","1","0","2",1,79,"New Horizon Nails & Spa","Anthem","10624 S Eastern Ave, Ste F","Henderson","NV","89052",35.9984,-115.102,4,82,1
"62","-o4egjmZHyJM-9-z7Io7qw",7.75,4,2,"0","1","1","2",1,3,"A-Maise-ing Images","","6601 Old Monroe Rd, Ste 24","Indian Trail","NC","28079",35.0486,-80.6473,5,7,1
"63","-oeisdVp-AL4-gg7jJfS0Q",9,5,3,"1","1","1","2",0,129,"MaxHealth Center","Southeast","8475 S Eastern Ave, Ste 101","Las Vegas","NV","89123",36.0355,-115.119,4.5,43,1
"64","-oiZGU0Ox5Vbvt5BXBs7ag",7,7,2,"1","1","0","2",0,68,"Walgreens","Capitol","311 East Campus Mall","Madison","WI","53715",43.0724,-89.3985,4,4,1
"65","-pXYaaBDOPSdaNXwdy7mAA",8.66666666666667,6,4,"1","1","0","2",2,49,"Repose Salon And Spa","","11 W Washington St, Ste 240","Phoenix","AZ","85003",33.448,-112.074,4.5,44,1
"66","-psqnDV1QpfKnodtEgCbTg",11.4,5,2,"1","1","0","2",1,9,"American Nightmare Tattoo","","2123 Western Ave","Las Vegas","NV","89102",36.1473,-115.165,2.5,5,1
"67","-s73VTMP33ld4P0TzvdVwg",7.6,5,2,"1","0","1","1",1,10,"Alder Street Barber","Shadyside","5987 Alder St","Pittsburgh","PA","15232",40.4575,-79.9256,4.5,58,1
"68","-tQoiOn-AFdhAdPID-sG-A",13.1428571428571,7,4,"1","1","0","2",1,83,"Massage Envy - Mesa","","6626 E Mckellips Rd","Mesa","AZ","85215",33.452,-111.688,3,24,1
"69","-u-WFAt0Kawd2rKiB4bhIw",7.83333333333333,6,3,"0","1","1","2",1,16,"Wax Hair Removal Bar","","2895 N Green Valley Pkwy, Ste E","Henderson","NV","89014",36.074,-115.083,4.5,20,1
"70","-u0dtJz6sBkhgLhAIBY_1A",9.14285714285714,7,2,"1","1","0","2",1,91,"Polished Nail Bar","Elizabeth","605 Providence Rd","Charlotte","NC","28207",35.2017,-80.8246,2.5,52,1
"71","-ub4sJzrd7v3NW72qY1pmQ",10.1666666666667,6,2,"1","1","1","2",0,1,"Planet 21","South End","325 Arlington Ave, Ste 140","Charlotte","NC","28203",35.2168,-80.8521,5,3,1
"72","-vipEI-vd-nanYInX-CQCQ",9.83333333333333,6,4,"1","1","1","2",2,23,"Modern Love Salon & Medspa","","7025 E 5th Ave","Scottsdale","AZ","85251",33.4972,-111.93,5,18,1
"73","-wZT6qfIlcVNfw-Vvxcreg",9.42857142857143,7,2,"1","1","1","2",0,60,"Luxury Nails By Safeway","","14692 N Frank Lloyd Wright Blvd","Scottsdale","AZ","85260",33.6192,-111.876,4,21,1
"74","-wuTt61JudBhiicEkG5kHg",8.71428571428571,7,3,"1","1","0","2",1,49,"Sinful Skin Tattoo Studio","","8110 W Union Hills Dr, Ste 240","Glendale","AZ","85308",33.6532,-112.234,5,52,1
"75","-xE5YeJz6xJ6BhUs8n3V3Q",12,6,2,"1","1","1","2",1,36,"Go Float Yourself","","4500 E Sunset Rd, Ste 4","Henderson","NV","89014",36.072,-115.076,4,22,1
"76","-xF6kuyzpR7hohRLRrvRDA",8,6,4,"1","1","0","2",0,1,"Amour Nails And Spa","","10500 East Jomax Rd","Scottsdale","AZ","85262",33.7272,-111.852,4,3,1
"77","-xabNZkJ14JlFA-LP2jzYA",5.83333333333333,6,2,"0","1","1","1",2,10,"Randall's Massage & Body Holistic Wellness","","5150 N 16th St","Phoenix","AZ","85016",33.5122,-112.048,5,18,1
"78","0-s9STDx--5khcgQy4vyow",10.4285714285714,7,3,"1","1","0","2",0,22,"Enlightened Soul Tattoo & Piercing","","1300 W Sunset Rd, Ste 2501","Henderson","NV","89014",36.0669,-115.041,5,20,1
"79","0010xnFOCyJZeMAuTtiv5w",8,7,4,"1","1","0","2",1,10,"Henna Shoppe","","7235 E 1st Ave","Scottsdale","AZ","85251",33.494,-111.925,5,45,1
"80","002ISUJGzG_5ejVrIqsPFA",7.6,5,10,"0","1","1","2",2,61,"Salon Atmosphere","Dormont","3000 W Liberty Ave","Pittsburgh","PA","15216",40.3932,-80.0369,4.5,10,1
"81","00PrHGOqhojVM8xwByjSfw",10.1428571428571,7,5,"1","1","0","2",1,43,"Urban Wax Scottsdale Waxing Studio","","6501 E Greenway Pkwy, Ste 153","Scottsdale","AZ","85254",33.625,-111.942,4.5,16,1
"82","00lLqbShBN9oScKCXBn8mw",9.6,5,4,"0","1","0","3",1,1,"Antoine's Le Jour Spa & Salon","","500 E Royalton Rd, Ste 120","Broadview Heights","OH","44147",41.3134,-81.6822,3.5,7,1
"83","00s_uNFN9uM2AW3bZZ8zrQ",9.85714285714286,7,4,"1","1","1","2",1,136,"Nature's Spa and Wellness","","6311 Carmel Rd, Ste B","Charlotte","NC","28226",35.0915,-80.8436,4.5,56,1
"84","02eH78Tc5Cxxy-CIqhzx-A",9.57142857142857,7,4,"1","1","0","2",1,431,"Vanity Nails & Spa","Southeast","7620 S Las Vegas Blvd, Ste 120","Las Vegas","NV","89123",36.0512,-115.171,3.5,148,1
"85","03SYJLErY8XpNfY-qiDZcw",8,5,4,"1","1","1","2",0,13,"Chateau D'tour Salon","","4727 E Cactus Rd, Ste 16","Phoenix","AZ","85032",33.5963,-111.98,4.5,12,1
"86","05qUHkx1cOv9i8GFLhZqoQ",7.66666666666667,6,6,"1","1","1","2",1,20,"Paris Laser and Cosmetic Tattoo","Spring Valley","5135 S Durango Dr, Ste 104","Las Vegas","NV","89113",36.0956,-115.28,5,15,1
"87","07MpHT8TrGDI_UVktfKMPA",10,7,4,"1","1","1","2",0,3,"The Salon At Red Rock","South Summerlin","11011 W Charleston Blvd","Las Vegas","NV","89135",36.1564,-115.334,3.5,3,1
"88","07nPF_eLxc_tYSto8Ag1mQ",9.8,5,5,"1","1","1","1",1,1,"3D MicroworksLV","The Lakes","8645 W Sahara Ave","Las Vegas","NV","89117",36.143,-115.28,5,4,1
"89","07zdbswvu8pyckyPv2HCyQ",9,6,5,"1","1","0","2",1,11,"Nails-N-Spa","","4532 E Lone Mountain Rd","Cave Creek","AZ","85331",33.7706,-111.984,5,6,1
"90","08AcSSFNcba9HA_-RYljkQ",11.2857142857143,7,2,"1","1","0","2",1,223,"EDGE Fitness 24/7 & Tanning","Chinatown","3645 S Rainbow Blvd","Las Vegas","NV","89103",36.1232,-115.243,2.5,28,1
"91","09AF8rnsPfKaEr2MH5wjBw",8,5,3,"1","1","1","2",1,149,"The Roose Parlour and Spa","","2234 N 7th St","Phoenix","AZ","85006",33.4726,-112.066,5,46,1
"92","09vrTfe6Od9MorfsRorS6g",9.83333333333333,6,2,"1","1","0","2",1,153,"Emporium","Spring Valley","5455 S Fort Apache Rd, Ste 104","Las Vegas","NV","89148",36.0896,-115.297,4,38,1
"93","0AeG4Um6PMMIMSiiVbvXXA",10.2857142857143,7,2,"0","1","0","2",1,17,"Zen Massage","","9826 Gilead Rd, Ste C-103","Huntersville","NC","28078",35.4063,-80.8644,3.5,24,1
"94","0B9znrfIopFrzOIW_MM_Qg",6.33333333333333,6,4,"1","1","0","2",1,69,"NAKED Skinn Studio","","601 Whitney Ranch, Ste D21","Henderson","NV","89014",36.0642,-115.054,5,45,1
"95","0BOdyChBbhGjQXRWZtDscQ",12.1428571428571,7,3,"0","1","1","2",2,78,"The Art of Shaving","The Strip","3377 Las Vegas Blvd, Ste 2380","Las Vegas","NV","89109",36.1227,-115.169,4.5,30,1
"96","0DDCXrCxGW1PU1qE1vTcZA",8.42857142857143,7,3,"1","0","0","2",1,48,"Love & Hate Tattoo And Piercing","","322 W Mcdowell Rd","Phoenix","AZ","85003",33.466,-112.079,4.5,38,1
"97","0DcpG11K0RNIvsquamyWjw",9.33333333333333,6,2,"1","1","0","2",1,60,"My Inails","","8110 W Union Hills Dr, Ste 300","Glendale","AZ","85308",33.6532,-112.234,4,52,1
"98","0EurB9I2L2mndcZC2yDwCQ",10.7142857142857,7,7,"1","0","1","2",2,1,"Beauty by Kristina","","18205 N 51st Ave, Bldg 3, Ste 126","Glendale","AZ","85308",33.6518,-112.168,4.5,6,1
"99","0FMKDOU8TJT1x87OKYGDTg",9.16666666666667,6,2,"1","1","0","2",0,83,"Senior's Barber Shop","","13375 W McDowell","Goodyear","AZ","85395",33.4636,-112.347,5,54,1
"100","0GY8oQmkk46U6JOVLMbvhA",9,5,5,"1","0","0","2",0,12,"S&S Salon & Barbershop","","4360 S Decatur Blvd","Las Vegas","NV","89103",36.1106,-115.207,3,8,1
"101","0GqDuGbO88WQEx37Lv9dgA",7.2,5,2,"1","1","1","2",1,1,"The Daily Glow","","8414 E Shea Blvd, Ste 103, Skin Savvy Aesthetics","Scottsdale","AZ","85260",33.5832,-111.899,5,7,1
"102","0HegKN321F0gfUcYqsLTxA",12,7,2,"0","1","0","2",1,168,"Thai Spa","Westside","7365 W Sahara Ave","Las Vegas","NV","89117",36.1431,-115.254,4.5,106,1
"103","0IHe0-NZhUzezHmH9Ep5ew",8.5,6,2,"1","1","0","3",1,4,"Bodify","","2999 N 44th St, Ste 135","Phoenix","AZ","85018",33.4823,-111.986,5,25,1
"104","0JZYzp5Z8tEbVr0N2MaLdw",12.1428571428571,7,2,"0","1","0","2",1,413,"Sephora","The Strip","3377 Las Vegas Blvd S","Las Vegas","NV","89109",36.1219,-115.17,4,117,1
"105","0Ja34ayGQypnhIupxwDD3g",9.5,4,2,"1","1","1","3",0,1,"Hair Affair","","7007 E 5th Ave, Ste 2","Scottsdale","AZ","85251",33.4972,-111.93,5,5,1
"106","0JbAdxxS1aZZxCjucbTuAQ",9,5,7,"1","1","1","2",1,2,"Idol Eyes Studio","","13547 N Litchfield Rd, Ste 25","Surprise","AZ","85379",33.6069,-112.357,5,6,1
"107","0LVDdXvdnqP5gz0B9Hu8YA",7.16666666666667,6,4,"1","1","1","3",1,11,"Arizona Laser & Skin","","15835 S 46th St, Ste 132","Phoenix","AZ","85048",33.3027,-111.984,3.5,9,1
"108","0MClc59pEqhTht6iB1hwzA",7.8,5,2,"1","1","1","3",1,16,"Shannon Smith","Southeast","9550 S Eastern Ave","Las Vegas","NV","89123",36.0153,-115.119,5,8,1
"109","0NAZOnbTPw4Rpn9_8BncMA",10.4285714285714,7,4,"0","1","0","2",0,41,"Ulta Beauty","","415 Cox Rd","Gastonia","NC","28054",35.2626,-81.1355,4,9,1
"110","0R4y7MOO_lD-0alCA68XEQ",11,6,4,"1","1","0","2",1,159,"Par Exsalonce","","20707 N Pima Rd, Ste 100","Scottsdale","AZ","85255",33.674,-111.889,4.5,51,1
"111","0S7UQppBEa-orSd_-YHXGA",10.4285714285714,7,2,"0","1","0","1",0,14,"Secretos Beauty Salon","Sunrise","1499 N Lamb Blvd","Las Vegas","NV","89110",36.1863,-115.08,4.5,3,1
"112","0SCHQdFVdfnF8AN_xjsozA",8.57142857142857,7,4,"1","1","0","2",1,43,"Simply Natural Nails","","4939 West Ray Rd, Ste 25","Chandler","AZ","85226",33.3184,-111.926,5,74,1
"113","0SodPiLSWvNaOqRgjVq6Bw",9,5,6,"1","1","1","3",0,1,"Permanent Makeup by Rebecca","Westside","5722 W Charleston Blvd","Las Vegas","NV","89146",36.1593,-115.22,5,3,1
"114","0T9Bp_vXjCnPria4SWv8mA",9.57142857142857,7,2,"1","1","0","2",1,68,"Sassy Nails","Centennial","6454 Sky Pointe Dr","Las Vegas","NV","89131",36.2812,-115.262,3.5,40,1
"115","0THp0OXZnZI_dXkVoxqhYg",12,7,3,"1","1","0","2",1,211,"Massage Heights South Pointe Plaza","Anthem","10420 S Eastern Ave, Ste 110","Henderson","NV","89052",36.0021,-115.106,4,59,1
"116","0Tf3SbtiT1vxhVYgZPbtLg",10.4285714285714,7,3,"1","1","0","2",1,168,"Ulta Beauty","University City","8150 Ikea Blvd, Ste 5","Charlotte","NC","28262",35.2958,-80.7622,2.5,27,1
"117","0UAmxbjAikZoG0Leds0MFA",9.8,5,5,"0","1","0","2",1,15,"Botanicals Salon and Spa","","15332 W Bell Rd, Ste 121","Surprise","AZ","85374",33.6393,-112.39,3,23,1
"118","0UvhhpDm26cZwyitX7xJfA",9,6,2,"1","1","0","1",1,24,"Nail Creations","Westside","8125 W Sahara Ave, Ste 150","Las Vegas","NV","89117",36.1425,-115.269,4.5,15,1
"119","0Ve_CtvgUpIem78axHpvGQ",9.42857142857143,7,2,"1","1","0","2",0,11,"Queen's Nails","","4639 East Cactus Rd","Phoenix","AZ","85032",33.598,-111.984,5,9,1
"120","0WNlzy9vkHEvVNOSEcI5rw",5.57142857142857,7,5,"1","1","1","2",1,6,"Colette's Body & Sole Day Spa","","102 W Pike St","Houston","PA","15342",40.2225,-80.2186,5,4,1
"121","0WpuLq-LfiNzIzmzszdfSg",10,7,3,"1","1","0","1",0,13,"Fantastic Sams Hair Salons","","5045 W Baseline Rd Ste A-125","Phoenix","AZ","85339",33.3759,-112.167,2.5,11,1
"122","0XQJbJil68MFRSZfNuo8cg",9.16666666666667,6,7,"1","1","1","2",1,3,"Brandi Gilstrap","","170 S Green Valley Pkwy, Ste 35, Sola Salons Studio","Henderson","NV","89012",36.0161,-115.058,5,5,1
"123","0ZGcpDtabBE_Pu9bQAPmOA",9.83333333333333,6,5,"1","1","0","2",1,46,"Tease Hair & Body Parlor","","15112 Detroit Ave","Lakewood","OH","44107",41.4852,-81.8019,4,37,1
"124","0ZwNjpGFZQJrvqV_VKDwWQ",10.4285714285714,7,4,"0","1","0","2",0,7,"Supercuts","","2225 E Centennial Pkwy, Shadow Creek Marketplace","North Las Vegas","NV","89081",36.2759,-115.12,4,8,1
"125","0_JC4qCPJYCBizFOJSvElQ",12.8333333333333,6,3,"1","1","1","2",1,160,"Simplicity Laser Hair Removal","Southeast","870 Seven Hills Dr, Ste 104","Henderson","NV","89052",35.9963,-115.122,3,51,1
"126","0_b7sBxmphrCwmKTJY1ekQ",8,6,2,"1","0","0","2",1,2,"Inkz Tattoo Company","","9206 S Avenida Del Yaqui, Ste 4","Guadalupe","AZ","85283",33.3635,-111.964,5,4,1
"127","0a9U5Bu_WvMv2jsQyty9cw",9.83333333333333,6,5,"1","1","0","2",1,10,"Serenity Salon & Spa","Ballantyne","16131 Lancaster Hwy","Charlotte","NC","28277",35.0287,-80.8512,5,13,1
"128","0bfb9LtVdTxpD6NenU3Ljw",9.57142857142857,7,3,"0","1","0","2",1,47,"Bella Mia Nails & Spa","Southwest","7345 S Rainbow Blvd, Ste 100","Las Vegas","NV","89118",36.0551,-115.244,4.5,50,1
"129","0bjg86HPC0slZgsirR8kuA",10,4,6,"1","1","1","2",1,11,"Inspirations Hair Design","","1940 W Chandler Blvd, Ste 14","Chandler","AZ","85224",33.3071,-111.876,5,6,1
"130","0cILAS0WDttKm8kf-o_CKQ",10,2,2,"1","1","1","2",1,3,"Crown of Eternity","Highland Park","1032 Winterton St","Pittsburgh","PA","15206",40.4728,-79.9134,5,5,1
"131","0du8CZ9g4KoMeYTReQc3dg",8.57142857142857,7,2,"1","0","0","1",1,52,"Zev's New York Barber Shop","","1512 W Bell Rd","Phoenix","AZ","85023",33.641,-112.092,5,39,1
"132","0fWnR8QmbVtsPODghH7NKw",5.5,6,4,"1","1","1","2",3,8,"TRU Skin Esthetics","South End","2133 Southend Dr, Ste 105","Charlotte","NC","28203",35.2071,-80.8598,5,3,1
"133","0fiu1iF4yactWy4asbpvbw",11,7,4,"1","1","0","2",1,9,"An Feet First","","1300 W Sunset Rd, Ste 1510","Henderson","NV","89014",36.0638,-115.04,5,18,1
"134","0gNb5h-37yKBxvOnCxnEHQ",9.42857142857143,7,5,"1","1","0","2",0,17,"Grand Nails Lounge","","7077 E Mayo Blvd, Ste 100A","Phoenix","AZ","85054",33.6538,-111.928,4.5,27,1
"135","0gPxFEPPyPGcCvCs2lW4UQ",7.83333333333333,6,4,"1","1","1","2",1,22,"Element Day Spa Inc","","961 Brodhead Rd","Coraopolis","PA","15108",40.5203,-80.2246,4,14,1
"136","0hlQbEOdqNBagHP6xFgRRQ",7,6,2,"1","1","1","2",0,1,"Step Up Styles","","3248 Old Frankstown Rd","Pittsburgh","PA","15239",40.446,-79.7122,5,11,1
"137","0i6GlR5YTCMlwthjqw6ZTQ",8.28571428571429,7,2,"1","1","0","1",1,14,"Cinthya's Beauty Salon","Westside","2101 S Decatur Blvd, Ste 11","Las Vegas","NV","89102",36.1487,-115.21,4.5,15,1
"138","0i9sw8P1gxKViAUyYCd6Ew",7.16666666666667,6,3,"1","1","1","2",1,13,"Wax Appeal","","1202 E Maryland, Ste 1C","Phoenix","AZ","85014",33.5313,-112.056,5,47,1
"139","0iRi1_TyI92VBmn3h-fSaQ",7,7,5,"1","1","0","2",1,248,"24/7 Salon & Day Spa Studio","","4965 W Tropicana Ave, Ste 105","Las Vegas","NV","89103",36.0993,-115.209,3.5,105,1
"140","0iV1TucSgXVYHtO7PrXveA",10.4285714285714,7,3,"1","1","1","2",0,24,"Light Salon & Spa","","35840 Chester Rd, Ste G","Avon","OH","44011",41.4682,-82.0156,3.5,7,1
"141","0kLBvZIjRP65IhCXhQXBlw",8.66666666666667,6,2,"1","1","1","2",0,3,"1 Nails &Spa Salon","","244 N Century Ave","Waunakee","WI","53597",43.1936,-89.4612,3,4,1
"142","0kMqHBv4LPaUAx6P-pIScg",11,6,2,"1","1","0","2",0,20,"Bobbi Brown Cosmetics at Nordstrom","The Strip","3200 Las Vegas Blvd S","Las Vegas","NV","89109",36.1272,-115.172,4,4,1
"143","0lKsDdM1ewhGtCRXYvSFMw",8,6,3,"1","1","1","2",1,20,"T.H.E Salon","Westside","2975 S Rainbow Blvd","Las Vegas","NV","89146",36.1357,-115.244,3,37,1
"144","0nC6DvVibGPKwMp65WiU7A",10,6,2,"1","1","0","2",1,190,"Rumors Salon","","7001 N Scottsdale Rd","Scottsdale","AZ","85253",33.5393,-111.921,4.5,134,1
"145","0nS_MnQeU507CubsuQv5Bw",8.83333333333333,6,3,"1","1","0","1",1,111,"Twins Barber Shop","","3415 W Thunderbird Rd","Phoenix","AZ","85053",33.6093,-112.131,5,45,1
"146","0nqtCtYUfwXjJVujzU79dg",10,7,5,"0","1","1","2",1,4,"Ecktor Romero - ERmakeovers at My Salon Suite","Southeast","9850 S Maryland Pkwy, Ste 14, Sugar Skulls Salon","Las Vegas","NV","89183",36.0108,-115.134,5,4,1
"147","0oH6k_64phGXAY89Y9tx_w",10.1428571428571,7,2,"1","1","0","2",1,31,"Sport Clips Kierland Village Center","","6501 E Greenway Pkwy, Ste 121","Scottsdale","AZ","85254",33.6254,-111.94,4,16,1
"148","0pvEQRFVBjxz1W7dNpNZFg",12.8571428571429,7,6,"1","1","0","2",1,1468,"Diamond Nails & Spa","Southwest","7775 S Rainbow Blvd, Ste 125","Las Vegas","NV","89139",36.0471,-115.244,4,585,1
"149","0pyYtAEHtjJ6Lph42US9Aw",9,7,4,"0","1","0","2",1,16,"Willow Hair Design","","14676 N Frank Lloyd Wright Blvd, Ste 125","Scottsdale","AZ","85260",33.619,-111.877,5,10,1
"150","0qayzrNKvLTzRYbZvcKPAg",9.71428571428571,7,2,"1","1","0","2",0,11,"Tiki Nail Bar","","1838 W Bell Rd","Phoenix","AZ","85023",33.6407,-112.099,2.5,28,1
"151","0qoJ6t64EeM0tJs_5BmMSg",8.6,5,2,"1","1","1","2",2,9,"Bellies and Babies","Cotswold","4416-C Monroe Rd","Charlotte","NC","28205",35.193,-80.786,5,18,1
"152","0r9T36NuaruZrCQt5gQ70A",10.2857142857143,7,4,"1","1","0","1",1,19,"Supercuts","","918 W Town Center Blvd, North Prospect","Champaign","IL","61822",40.1431,-88.2596,3.5,9,1
"153","0rU0OjYEEzjr_AokTspqbw",10.7142857142857,7,3,"1","1","0","2",1,4,"Sun Beauty Supply","","3446 W Camelback Rd, Ste 147","Phoenix","AZ","85017",33.5104,-112.133,4,3,1
"154","0s8BqnqeQjZX0LU76qEpOg",9.28571428571429,7,3,"1","1","1","2",1,246,"LunchboxWax Scottsdale","","6590 N Scottsdale Blvd, Ste 130","Scottsdale","AZ","85253",33.5332,-111.926,5,112,1
"155","0sQb2y9-yLstti4KhdGisA",9.4,5,2,"1","0","0","2",0,8,"Chosen Art Tattoo & Studio","","13625 N 59th Ave","Glendale","AZ","85304",33.6092,-112.186,4,5,1
"156","0tPFrn73ArJiIPMRWbVVSQ",9,5,2,"1","1","0","2",0,4,"Vanity Nail Bar","","3460 E Southern Ave, Ste 106","Mesa","AZ","85204",33.3949,-111.756,3.5,26,1
"157","0tRqRaU2xBAeSGQitgRvoQ",9.42857142857143,7,2,"1","1","0","2",0,11,"Luxury Nails Bar","","8278 W Lake Pleasant Pkwy, Ste 102","Peoria","AZ","85382",33.6704,-112.238,4,19,1
"158","0tYZ8Pyhwg4k76SJKg6w-A",8.42857142857143,7,3,"0","1","0","2",0,11,"Square One Nails & Spa","","13915 Cedar Rd","South Euclid","OH","44118",41.5021,-81.539,3,15,1
"159","0uBxMuP3lW1YbzscGyPYkQ",10,6,5,"1","1","1","2",1,5,"D&M Salon Spa","Spring Valley","3545 S Fort Apache Rd, Ste 120","Las Vegas","NV","89147",36.1252,-115.297,4,5,1
"160","0ukCpm8fabI2xNJ8KSSXww",14,7,2,"0","1","0","1",0,143,"Walgreens","","8816 E Pinnacle Peak Rd","Scottsdale","AZ","85255",33.6992,-111.889,1.5,10,1
"161","0vZ3AyWq55o2c5org4Ld_A",10,6,4,"0","1","0","1",0,15,"Best Eye Brows Threading","Southeast","9890 S Maryland Pkwy, Ste 5","Las Vegas","NV","89183",36.0102,-115.135,4.5,19,1
"162","0wCs3zbATXLMDcja3bgXig",12.1428571428571,7,2,"0","1","0","2",1,59,"Lush","The Strip","3500 Las Vegas Blvd","Las Vegas","NV","89109",36.1186,-115.175,4.5,24,1
"163","0xPUAqWb38y8P8UvUBHCOw",8,7,4,"1","1","0","2",1,22,"Wondrous Hair by Maurees","Spring Valley","4001 S Buffalo Dr, Ste 129, Touch Salon","Las Vegas","NV","89178",36.0773,-115.243,5,11,1
"164","0xo3bFKKQQmKjykYAJwH5g",11.1428571428571,7,4,"1","1","1","2",1,332,"European Wax Center","Anthem","10271 S Eastern Ave","Henderson","NV","89050",36.0029,-115.111,4,72,1
"165","0yw0rDT0aOvWn2FMGFPpPw",9.42857142857143,7,2,"1","1","0","2",1,29,"Creative Nails By Susan","","4040 S Arizona Ave, Ste 20","Chandler","AZ","85248",33.2465,-111.843,4,40,1
"166","1-8uoxuNCdaHlfPneJrusA",9,4,2,"1","1","1","2",1,4,"Epic Natural Beauty","","3820 E Ray Rd, Ste 26","Phoenix","AZ","85044",33.3176,-112.003,5,7,1
"167","10xKelnuR7KHeUW-ibEq2Q",9.28571428571429,7,4,"1","1","1","2",0,3,"Piazza Salon & Spa","","8460 E Washington St","Chagrin Falls","OH","44023",41.4128,-81.3399,4,4,1
"168","11PZaYWrnnWIzrQmnmGfiQ",9,5,6,"1","1","0","2",1,112,"Scottsdale Tangles Salon","","10050 N Scottsdale Rd, Ste 105","Scottsdale","AZ","85253",33.5777,-111.928,4.5,11,1
"169","11qkCpHki5hlvYjJHUFPGw",9.33333333333333,6,3,"1","1","0","1",1,93,"Diana Rainbow Nails","","6620 W Flamingo Rd, Ste 11","Las Vegas","NV","89103",36.1149,-115.237,4,23,1
"170","12CdqhsVJXgx4AE9ykG09A",10.3333333333333,6,3,"1","1","1","2",1,146,"THORPS haircuts & color","Williamson - Marquette","1988 Atwood Ave","Madison","WI","53704",43.0926,-89.3552,4.5,125,1
"171","12M1imuxjNJAeDO2QLs9sw",11.2857142857143,7,2,"1","1","0","2",0,90,"Sally Beauty Supply","Chinatown","3625 S Rainbow Blvd","Las Vegas","NV","89103",36.1231,-115.246,2,15,1
"172","12g_z3nFKbN2telbzG5ZWQ",10,7,3,"1","1","0","1",1,38,"Opi Nails & Spa","","3840 W Lake Mead Blvd, Ste 105","North Las Vegas","NV","89032",36.1984,-115.19,2,31,1
"173","13EssEAKW5Wd9p7_HDsUPg",8,5,4,"0","1","1","3",0,16,"Salon La Te Da","","331 Castle Shannon Blvd, Ste 1","Pittsburgh","PA","15234",40.3763,-80.0367,3.5,7,1
"174","148BlXeNBxjHyOGw4BxmkQ",10.4285714285714,7,4,"1","1","0","2",1,112,"Ulta Beauty","","2501 W Happy Valley Rd, Ste 38","Phoenix","AZ","85085",33.7101,-112.112,3,34,1
"175","14Ibb_bJSUe2BGfhckOc1Q",8.83333333333333,6,4,"1","1","1","2",1,17,"Shella Nails And Spa","Southwest","8680 W Warm Springs Rd, Ste 23, Sola Salon Studio","Las Vegas","NV","89148",36.0561,-115.281,4,10,1
"176","14k1VdNAkm5-G7_lpRHV1g",12.1428571428571,7,6,"1","1","0","2",3,39,"Original Diva","The Strip","Planet Hollywood Resort Casino, 3663 Las Vegas Blvd S, Ste 440","Las Vegas","NV","89109",36.1097,-115.17,3,67,1
"177","15UtQDK9edy1UqPSOaIGgw",10.2857142857143,7,2,"1","1","0","2",1,37,"Bath And Body Works","","15279 N Scottsdale Rd Scottsdale Quarter","Scottsdale","AZ","85260",33.6259,-111.925,3.5,3,1
"178","15y3hXc2mzZOp1K9YNvIZQ",8.33333333333333,6,2,"1","1","0","2",0,3,"Salon Majestic","","20851 N 83rd Ave, Ste 101","Peoria","AZ","85382",33.6734,-112.238,4.5,4,1
"179","17KjGxHTPCRwkPdEL95QPg",9,6,2,"1","1","1","2",1,58,"Reflecting Hands Massage Therapy","Westside","5450 W Sahara Ave, Ste 138","Las Vegas","NV","89146",36.1449,-115.216,4.5,63,1
"180","18FDlJmk4d4UnMir8KbYjg",14,7,2,"1","1","0","2",1,133,"Walgreens","","3434 W Southern Ave","Phoenix","AZ","85041",33.3927,-112.133,3,4,1
"181","18u6-ygaOgVNxWqbH3kVYg",7,6,2,"1","1","0","2",0,6,"Stem Handmade Soap","","12405 Madison Ave","Lakewood","OH","44107",41.4767,-81.7754,4,6,1
"182","19LMPCmoRpn7TG5QybeL5g",9.28571428571429,7,2,"0","1","0","2",0,4,"Blush Nail Boutique","","2804 Prairie Lakes Dr, Unit 105","Sun Prairie","WI","53590",43.1656,-89.2701,2.5,33,1
"183","19c-I0QIzSpcRb8-6U593g",9.42857142857143,7,2,"1","1","0","2",1,9,"5 Star Nail & Spa","","8333 Greenway Blvd, Ste 110","Middleton","WI","53562",43.0897,-89.5265,4,21,1
"184","1A29iZ18ontC4vdaTJVMCQ",8.8,5,6,"1","1","0","3",1,10,"Armis Salon & Spa","Ballantyne","12210 Copper Way, Ste 218","Charlotte","NC","28277",35.0712,-80.8442,3,16,1
"185","1C3vpQTPB2BA5kNQSzVY9w",6.57142857142857,7,6,"1","1","1","2",2,3,"PHX Hair","","3201 N 16th St, Ste 4","Phoenix","AZ","85016",33.4853,-112.047,4.5,7,1
"186","1E57waB10Z6usQicefQ59g",10.2857142857143,7,4,"1","1","0","2",1,49,"Sport Clips Haircuts of Champaign - Neil Plaza","","1903 N Neil St, Ste A","Champaign","IL","61820",40.1392,-88.2448,4.5,6,1
"187","1EbdmUMbrS12DougfSOqHw",13.2857142857143,7,2,"1","1","0","2",1,294,"Kohl's","","6650 N 5th St","North Las Vegas","NV","89084",36.2809,-115.133,3.5,28,1
"188","1EnBxExrsSbJiGZqjSjUng",9.42857142857143,7,2,"0","1","1","2",1,8,"Relaxation4All","","5320 N 16th St, Ste 209","Phoenix","AZ","85016",33.5148,-112.048,5,11,1
"189","1GC_e8GLTTQexblkkrz5dg",9.57142857142857,7,4,"1","1","0","2",0,14,"Social Nail Bar","Anthem","2280 Paseo Verde Pkwy, Ste 120","Henderson","NV","89052",36.0221,-115.088,4.5,35,1
"190","1JANhexd2jvpNs2wj6f1lA",10,6,6,"1","1","0","1",0,7,"Love Threading Bar","Ohio City","2030 W 25th","Cleveland","OH","44113",41.4837,-81.7033,2,16,1
"191","1JEmBa6NYiJAOkRcHviEmw",10.5,6,6,"1","1","0","3",2,34,"Charles Scott Salons & Spas","Detroit-Shoreway","19025 Lake Rd","Rocky River","OH","44116",41.4793,-81.74,3.5,19,1
"192","1Jm9RryI6hDg5tSqqIeMfA",10.6,5,3,"1","1","1","2",0,19,"Tracies Manicurist","","930 E Warner Rd","Chandler","AZ","85225",33.3358,-111.827,5,4,1
"193","1Jw6wQ4qXDj18m3dDOlgAw",7.6,5,2,"1","1","1","3",1,10,"Rejuvent Medical Spa & Surgery","","9155 E Bell Rd","Scottsdale","AZ","85260",33.6393,-111.884,3,5,1
"194","1K2D2wsxprU54FpkeDZTiQ",8.85714285714286,7,5,"1","1","1","3",1,5,"Kingz Tattoo Parlor","Spring Valley","4001 S Buffalo Dr","Las Vegas","NV","89147",36.1165,-115.261,5,25,1
"195","1MxyFhzNpeIvTQHjtp-bSg",9.57142857142857,7,2,"1","1","0","2",0,29,"Diva Nails","","6611 W Peoria Ave, Ste 2","Glendale","AZ","85302",33.5808,-112.201,4,36,1
"196","1NjEKMltuzp9U4UleGZruQ",9,6,2,"0","1","1","1",2,12,"The Spa","Eastside","255 E Flamingo Rd","Las Vegas","NV","89169",36.1134,-115.16,4.5,18,1
"197","1OEO4jA9VdKgC7_O8_6b_g",9.57142857142857,7,5,"1","1","0","2",0,13,"New Look Hair Nail & Spa","","13749 N Litchfield Rd","Surprise","AZ","85379",33.6088,-112.357,2,4,1
"198","1Ob1ozwl0y4gqnO096mCeg",9.42857142857143,7,4,"0","1","0","1",1,44,"Shayna's Nails & Spa","","4221 E Chandler Blvd","Phoenix","AZ","85048",33.304,-111.994,4.5,35,1
"199","1ROp6NSMYaXPqAjo8ubAtA",12,7,3,"1","1","0","2",1,15,"Beneath The Surface Tattoos","Southeast","3345 E Patrick Ln, Ste 138","Las Vegas","NV","89120",36.0785,-115.102,3.5,7,1
"200","1S1d10hiwGQ4bxhK-16Bpw",10,5,4,"1","1","1","3",1,21,"Arrowhead Dermatology","","7767 W Deer Valley Rd","Peoria","AZ","85382",33.6808,-112.226,3,31,1
"201","1SLJKRYPRifERga33AjK7Q",8.57142857142857,7,4,"1","1","0","2",1,159,"Cloud Nine Salon and Spa","","8707 S Priest Dr","Tempe","AZ","85284",33.3356,-111.963,4,77,1
"202","1TCIxA1lh1zqfZqThCY7Rw",7.42857142857143,7,6,"1","1","1","2",2,19,"Wink Wink Blink","Anthem","2490 Paseo Verde Pkwy","Henderson","NV","89074",36.0199,-115.096,4.5,10,1
"203","1Tall5Q7Jj18vbEnvMqY9g",9.42857142857143,7,5,"1","1","0","2",0,32,"Broadmoor Nail Spa","","6025 Kruse Dr, Ste 113","Solon","OH","44139",41.3939,-81.4446,4.5,14,1
"204","1UieHBJ2hlGUv9X53G2M6A",9.57142857142857,7,2,"0","1","1","2",0,126,"Nails By Males Beauty Lounge","","1290 N Scottsdale Rd, Ste 101","Tempe","AZ","85281",33.4429,-111.928,4.5,47,1
"205","1UmAo-UZoDcAkHd0O2kfsg",9.42857142857143,7,2,"1","0","1","2",1,19,"Madd House Tattoo","Eastside","557 E Sahara Ave","Las Vegas","NV","89104",36.1435,-115.149,4,8,1
"206","1VK3xb4nyFWZP7BicNQxUw",10.6666666666667,6,4,"1","1","1","2",1,253,"Sachi Salon & Spa","","4821 N Scottsdale Rd","Scottsdale","AZ","85251",33.5066,-111.926,4.5,133,1
"207","1Vq4jEtg6rp_x5g3kYRGkQ",7.71428571428571,7,3,"0","1","0","2",1,7,"Pip & Lola's Everything Homemade","","3614 Main St, Fl 1","Munhall","PA","15120",40.3847,-79.9038,5,6,1
"208","1XZ9ItmYZuxYP4GgrcDCJg",10.2857142857143,7,7,"1","1","1","2",2,40,"Crazy Mullets Coventry","","1830 Coventry Rd","Cleveland Heights","OH","44118",41.5097,-81.5802,4,29,1
"209","1Z1SH6kLoeJVwkWY1BXvyQ",10.4285714285714,7,2,"1","1","0","2",0,6,"Lush Cosmetics","","1000 Ross Park Mall Dr","Pittsburgh","PA","15237",40.5434,-80.0077,5,9,1
"210","1ZCtAVoNCKDihfZeVR_OQQ",9.66666666666667,6,4,"1","1","0","2",0,7,"Tatum Hair And Nails","","13843 N Tatum Blvd, Ste 25","Phoenix","AZ","85032",33.6131,-111.977,5,9,1
"211","1ZnY1iVPw8pPfbOh-m12-A",7.4,5,2,"1","1","1","2",1,8,"Onyx Salon For Nails, Body & Soul","","510 Station St, Ste 6","Bridgeville","PA","15017",40.3572,-80.1106,4.5,17,1
"212","1_2I3175jm3VmRsI6VYjDA",8,6,2,"1","1","1","2",1,13,"BodyTech Sports Massage","","7272 E Indian School Rd, Ste 540","Scottsdale","AZ","85251",33.4957,-111.924,5,12,1
"213","1_3Ky5jhxvyoZifOjItuvw",10.1428571428571,7,4,"1","1","0","2",1,3,"Men's Ultimate Grooming","","2512 S Val Vista Dr, Ste 104","Gilbert","AZ","85295",33.3049,-111.756,4,8,1
"214","1_Bwp-442E_YWFimEEzhVw",9.66666666666667,6,3,"1","1","0","2",1,84,"Gentlemen Joe's Barber Shop","","805 N Dobson Rd, Ste 113","Mesa","AZ","85201",33.4301,-111.874,3.5,30,1
"215","1_Qvm1orB_atyUBaKL_l1Q",9.42857142857143,7,2,"1","1","0","2",0,3,"Lava Nails","","9931 E Baseline Rd, Ste 102","Mesa","AZ","85209",33.3773,-111.621,3,4,1
"216","1_SbdpAt9n8C1p8UOE9KQw",10.2857142857143,7,5,"0","1","0","2",0,150,"Nailand","Spring Valley","4115 S Grand Canyon Dr, Ste 101","Las Vegas","NV","89147",36.1147,-115.31,4.5,57,1
"217","1aEx-I_JdWPl6ITQDQAJxQ",12.8571428571429,7,2,"1","0","0","2",1,401,"Village Barber Shop","Anthem","10608 S Eastern Ave","Henderson","NV","89052",35.9999,-115.103,4,83,1
"218","1bBODLZt3o0q22zw8ynFOw",8.8,5,4,"1","1","1","2",1,2,"I Am Beauty","","13802 N Scottsdale Rd","Scottsdale","AZ","85254",33.6131,-111.927,5,13,1
"219","1bTOpJMpwTx_TIKVkMNkIA",9.2,5,3,"1","1","0","2",1,43,"Infinite Wellness Of Fort Mill","","1698 Hwy 160 W, Ste 200","Fort Mill","SC","29708",35.0332,-80.9679,4.5,4,1
"220","1cIJ1NplF-qYqbSfwgxAIg",8.42857142857143,7,6,"1","1","1","2",1,26,"Stripped Esthetics","Anthem","9975 S Eastern Ave","Las Vegas","NV","89183",36.0073,-115.115,5,23,1
"221","1cicW421wArHN6Q_xqy4lw",8.85714285714286,7,7,"1","1","1","2",1,12,"Gypsy Beauty Lounge","Southwest","8680 W Warm Springs Rd, Ste 130","Las Vegas","NV","89148",36.0562,-115.281,5,24,1
"222","1d-yIypEtk1wc2PTY8xAQg",12.5714285714286,7,2,"1","1","0","2",1,16,"Bodyheat Tanning","Centennial","8400 Farm Rd, Suite 1, Ste 130","Las Vegas","NV","89131",36.3,-115.28,3,14,1
"223","1dUI1EL4lN8jF5RjunygYA",9,4,2,"1","1","1","2",0,1,"Suite Bella Vita","","3936 E Chandler Blvd, Ste 122","Phoenix","AZ","85048",33.3066,-111.999,5,3,1
"224","1fbmathLrHz0J_KZa4dHXg",9,5,2,"1","1","0","2",1,61,"J Moose Barber Shop","","1835 N Scottsdale Rd","Tempe","AZ","85281",33.4494,-111.925,4.5,42,1
"225","1fsu5nUVYCIEPt7zDYwNIw",14,7,2,"0","1","0","2",0,39,"Walgreens","","805 S Val Vista Dr","Gilbert","AZ","85296",33.335,-111.755,2,5,1
"226","1geTYdwDNBo3w6BUl8JOOg",9.66666666666667,6,2,"1","1","0","2",1,31,"Liberty Barber Shop","","13761 W Bell Rd","Surprise","AZ","85374",33.6371,-112.357,3.5,27,1
"227","1iZ5ZFkvICNjrpJvQud6Sw",9,5,5,"1","1","1","2",0,1,"Salon Bohemia","","19420 N 59th Ave","Glendale","AZ","85308",33.6622,-112.187,5,18,1
"228","1l-7nZDdSnSU-CLHDEkSVg",10,7,2,"1","1","0","2",1,21,"D & M Nails","Squirrel Hill","2711 Murray Ave","Pittsburgh","PA","15217",40.4284,-79.9243,4,27,1
"229","1l3tYOeaZpR0UfOUnbKwQA",9.42857142857143,7,3,"1","1","1","1",0,1,"Kai's Lash and Foot Spa","Westside","6340 W Sahara Ave","Las Vegas","NV","89146",36.1446,-115.233,5,7,1
"230","1l6iZ_SFrh7DKYMPqX08Mg",9.71428571428571,7,6,"1","1","0","1",1,293,"Javal Brow Bar","","5515 Camino Al Norte, Ste 103","North Las Vegas","NV","89031",36.26,-115.156,4.5,104,1
"231","1lLFAegx2dpQMiRZzV7P-w",9,7,5,"1","1","1","2",0,7,"Faded and Glazed","Centennial","5643 Centennial Center Blvd, Ste 150","Las Vegas","NV","89149",36.2636,-115.258,5,10,1
"232","1lmu_At_AFkgSWpNo0NZGA",11.6666666666667,6,5,"1","1","0","2",1,41,"Chace Salon","","16630 W Greenway Rd, Ste 302","Surprise","AZ","85388",33.6256,-112.416,3.5,35,1
"233","1lniJ4trPfQ5U1_P4IpU_w",9.42857142857143,7,2,"1","1","0","2",0,6,"Regal Nails Salon & Spa","","150 Concord Commons Pl SW","Concord","NC","28027",35.3892,-80.6226,4.5,3,1
"234","1m-cfQ3iLZvQw893F13AzA",8.4,5,5,"0","1","1","2",1,18,"Derma Health Skin & Laser","","21681 N 77th Ave","Peoria","AZ","85382",33.6809,-112.225,5,25,1
"235","1nmjYVBhO0q3s6ldAXqPLA",7.2,5,7,"0","1","1","2",1,6,"The LALA Girl Makeup & Hair Mobile Grooming","","","Charlotte","NC","28209",35.1811,-80.8488,4.5,13,1
"236","1oDT4ro2VRQPhVKa1x883A",8,7,2,"1","1","1","2",0,3,"Suite 6 Beauty Bar","","1720 E Warner Rd, Ste 6","Tempe","AZ","85284",33.3353,-111.912,5,3,1
"237","1odCLkqn69BdZ8hO7hxzWg",9.66666666666667,6,5,"1","1","0","2",1,15,"Faded Styles Barber And Beauty","","6601 W Bethany Home Rd, Ste A-15","Glendale","AZ","85301",33.5232,-112.201,3,4,1
"238","1pSnogYq1-nuDlZJ1_XWqw",8,5,6,"1","1","1","2",0,7,"Abicenna Skin and Laser Clinic","","13575 W Indian School Rd, Ste 300","Litchfield Park","AZ","85340",33.487,-112.351,5,3,1
"239","1q44aWEcDN7uRvA2l8xpvQ",14,7,2,"1","1","0","2",1,102,"Walgreens","Eastside","3808 E Tropicana Ave","Las Vegas","NV","89121",36.1007,-115.091,2.5,6,1
"240","1qZpjP99lRy10lOprX37Vg",9.6,5,4,"1","1","1","2",1,16,"Emme Diane","","21001 N Tatum Blvd Studio 109, Inside The Beauty District Salon Suites","Phoenix","AZ","85050",33.6764,-111.974,5,55,1
"241","1sKRc9vFaZ_dLQGPE_P7Dg",9.57142857142857,7,3,"1","1","0","2",2,139,"Anthony Vince Nail Spa","","276 Crocker Park Blvd","Westlake","OH","44145",41.4602,-81.9518,2.5,66,1
"242","1uCoWygbmehTJP8Su_3QVA",9.42857142857143,7,2,"1","1","0","2",1,47,"Glamour Nail Bar","","1180 W Elliott Rd, Ste 104","Tempe","AZ","85284",33.3506,-111.957,4,52,1
"243","1wxo7C5OpOI55HmV2N22CQ",13,7,5,"1","1","1","2",0,11,"Immaculate U","Southwest","4270 Blue Diamond","Las Vegas","NV","89139",36.0393,-115.198,5,23,1
"244","1x-Sg3v1gZIjL-DP-RfQbA",10.2857142857143,7,3,"1","1","0","1",1,45,"Cost Cutters","","3418 W Bell Rd, Sunset Village Shopping Center","Phoenix","AZ","85053",33.6407,-112.132,4,19,1
"245","1xO2LvScpcMfl2BNm1aISg",14,7,4,"0","1","1","3",1,812,"Qua Baths & Spa","The Strip","3570 Las Vegas Blvd S","Las Vegas","NV","89109",36.1171,-115.175,4.5,545,1
"246","1yHK3JQk443toYb1gaHQUA",9.4,5,5,"1","1","1","2",0,1,"Skinovation Skincare & Waxing","","8888 E Pinnacle Peak Rd, Ste 12","Scottsdale","AZ","85255",33.6988,-111.89,5,3,1
"247","1yIedrVRAfAtsG2Fk0p9Fw",9.42857142857143,7,2,"1","1","0","1",1,114,"Andys Nails","","4041 E Thomas Rd","Phoenix","AZ","85018",33.4799,-111.994,2.5,22,1
"248","1zbbaiy-YqePRnhWB1O7HA",9.42857142857143,7,2,"1","1","0","2",0,7,"Bell Barber Shop","","4015 E Bell Rd, Ste 126","Phoenix","AZ","85032",33.6401,-111.995,4.5,12,1
"249","1zi_c7rwxQ3P0cHIpBT8eQ",13,7,2,"1","1","0","1",0,1,"Oriental Foot Spa","Westside","5661 W Sahara Ave","Las Vegas","NV","89146",36.1429,-115.22,4,5,1
"250","1zl-ElImzoUYFExUdCrpmw",13.8571428571429,7,2,"1","1","0","2",0,24,"Walgreens","","2737 E Mckellips Rd","Mesa","AZ","85213",33.4511,-111.771,3,4,1
"251","2-I9fNIEHxEVVq6r0n0A9A",9,5,3,"1","1","0","2",1,2,"Up In Arms Tattoos and Piercings","","539 Carnot Rd","Coraopolis","PA","15108",40.5156,-80.2217,5,4,1
"252","2-_42nYnOf_RpYBf4sdMHw",9.57142857142857,7,3,"1","1","0","2",1,76,"Beyond Nail Spa","Southwest","7150 S Durango Dr","Las Vegas","NV","89113",36.0581,-115.278,3.5,36,1
"253","2-hzRW7iwQE0gzQIyQnwlA",8,6,2,"1","0","0","2",1,68,"John Mario's Barber Salon","","60 S Stephanie St","Henderson","NV","89012",36.0261,-115.047,4.5,20,1
"254","2-jI4n2kVK9ltHS-WdnGUA",8.42857142857143,7,2,"1","1","1","2",1,80,"Mister Grooming & Goods","Lawrenceville","4504 Butler St","Pittsburgh","PA","15201",40.4721,-79.9588,4.5,69,1
"255","2-piM4HDzQh0vJQY3pjQ9g",8,7,3,"1","1","0","2",4,32,"LV Tattoo","Downtown","25 Fremont St, Ste 210","Las Vegas","NV","89101",36.171,-115.145,4,25,1
"256","20Vn7iRLnZxjU4stfHkyEQ",7.8,5,2,"1","1","0","2",2,44,"Salon Kismet","","5808 North 16th St","Phoenix","AZ","85016",33.5222,-112.048,4.5,13,1
"257","20qeOmBz6Ar_0FurbwSrGA",8,6,7,"1","1","1","2",1,4,"Marie's Permanent Makeup","","9440 W Sahara Ave, Ste 125","Las Vegas","NV","89117",36.1193,-115.226,4.5,11,1
"258","21lbyMhQFR7nFWnbSNhNdw",10.1428571428571,7,2,"1","1","0","2",1,8,"Arizona Hair Co","","2925 E Riggs Rd, Ste 6","Chandler","AZ","85249",33.2178,-111.792,4,15,1
"259","22UJxzvG95T4lcidxvgm5w",8.71428571428571,7,2,"1","1","1","2",1,47,"Proformance Health","","14300 N Northsight Blvd, Ste 116","Scottsdale","AZ","85260",33.6162,-111.898,4,17,1
"260","234xl6FvaEjileGm2jtKGg",8.57142857142857,7,2,"0","1","0","2",1,48,"Black Lotus Tattooers","","2401 E Baseline Rd, Ste 108","Gilbert","AZ","85234",33.3785,-111.779,4.5,60,1
"261","23Cl40e7Z6DOCVPWhpxu3Q",8.57142857142857,7,3,"1","1","0","3",2,3,"Pittsburgh Tattoo Studio","Dormont","2895 W Liberty Ave","Pittsburgh","PA","15216",40.3949,-80.0343,5,19,1
"262","23PU80u2b3wodvWBqf0APw",7,6,2,"0","0","0","1",1,18,"Carl's Barber Shop","","1010 E Main St","Mesa","AZ","85203",33.4155,-111.809,5,25,1
"263","23ccd6rfb3pNOqEGxXFRFQ",7.14285714285714,7,6,"1","1","0","2",1,6,"Belia Skin & Beauty Spa","Spring Valley","5165 S Fort Apache Rd, Ste 180","Las Vegas","NV","89148",36.0957,-115.298,5,16,1
"264","23uvezsNprJi_pEYRWQLtw",7.2,5,5,"1","1","1","2",1,37,"New Image Med Spa","","4530 E Muirwood Dr, Ste 114","Phoenix","AZ","85048",33.303,-111.986,5,22,1
"265","25uo5WnHoee2jNyVQ-kpPA",8.14285714285714,7,3,"1","1","0","2",1,3,"Black Metal Tattoo","","13500 Pearl Rd, Ste 117","Strongsville","OH","44136",41.316,-81.8358,5,20,1
"266","26KhasJUOMx5Xua3JfOwOw",9.83333333333333,6,2,"0","1","0","3",0,2,"Upscale Nails","","1046 Regent Pkwy, Ste 103","Fort Mill","SC","29715",35.0759,-80.9341,3,8,1
"267","26f6AynQlxbbBo2u1VxkvQ",14,7,2,"1","1","0","3",0,28,"Walgreens","","17088 W Bell Rd","Surprise","AZ","85374",33.6394,-112.426,3.5,7,1
"268","26fxaH4i_P1PALGplFtdhw",7.8,5,2,"1","1","1","2",1,45,"Salon Ivy","South Side","1213 E Carson St","Pittsburgh","PA","15203",40.4288,-79.9858,4.5,27,1
"269","26hQy2RMyhYxjzmlE_dNeQ",11.8571428571429,7,4,"1","1","0","2",0,22,"Hand & Stone Massage and Facial Spa","","2925 S Alma School Rd, Ste 6","Chandler","AZ","85286",33.2635,-111.857,4.5,13,1
"270","27-9hCiCX14fG22ZBtbnog",9.71428571428571,7,4,"1","1","0","2",1,9,"Tammy Nails Spa","","26 E Baseline Rd, Ste 118","Phoenix","AZ","85042",33.3789,-112.072,4,14,1
"271","27XtopcBMdl3z9QiViWjVQ",9.5,4,5,"1","1","0","2",1,1,"Shear Perfection Studio","","3163 S McClintock Dr, Ste 34","Tempe","AZ","85282",33.3945,-111.908,5,3,1
"272","288lAybD6oJD4Nwow1R7wA",8.83333333333333,6,2,"1","0","0","1",1,14,"Paradise Hills Barbers","","3114 E Shea Blvd","Phoenix","AZ","85028",33.5825,-112.015,5,22,1
"273","28MoceEv54TgNDsmGxokPw",12.1428571428571,7,2,"0","1","0","2",1,404,"Sephora","The Strip","3663 Las Vegas Blvd S, Ste 140","Las Vegas","NV","89109",36.1107,-115.172,4,83,1
"274","28Scz6xcdiZWZ6KJ8YH1pg",9.14285714285714,7,4,"1","1","0","2",0,9,"V's Barbershop","","5505 N 7th St, Ste 100","Phoenix","AZ","85014",33.5168,-112.065,4,23,1
"275","28wlUgf7QpQqziF5qsPWrA",9.66666666666667,6,2,"1","1","1","1",1,42,"Chiropractic Life","","5150 N 16th St, Ste B250","Phoenix","AZ","85016",33.5122,-112.048,5,18,1
"276","2A-C3WBhXen91t-TXByC6w",10,7,3,"1","1","0","1",0,20,"Best Cuts","","30315 Detroit Rd, The Promenade","Westlake","OH","44145",41.4622,-81.9561,3.5,5,1
"277","2AtpxRG3opD2M7gtRvUUaw",9.57142857142857,7,2,"1","1","0","2",1,84,"Cutie Nails & Spa","Northwest","10450 W Cheyenne Ave, Ste 110","Las Vegas","NV","89129",36.2204,-115.325,4,94,1
"278","2BuY5r2GWoai6IAn9FptCg",15,7,3,"0","1","1","3",2,725,"Spa & Salon At ARIA","The Strip","3730 Las Vegas Blvd S","Las Vegas","NV","89109",36.1073,-115.177,4,248,1
"279","2C-Su_yxiOfojKP5xTMmEw",13,7,2,"0","1","0","3",1,20,"Bodyheat Tanning","Westside","8975 West Charleston Blvd","Las Vegas","NV","89117",36.158,-115.289,2.5,7,1
"280","2CabGE-ZFsKrw5Ke_mNsaw",11,5,2,"1","1","1","2",0,3,"Mike the Hair God","Spring Valley","4001 S Buffalo Dr, Ste 101","Las Vegas","NV","89147",36.1165,-115.261,5,28,1
"281","2D3IgP6Bu28GxoNXBrChaQ",14,7,2,"1","1","0","2",1,456,"Walgreens","Centennial","6825 N Durango Dr","Las Vegas","NV","89149",36.285,-115.289,2,35,1
"282","2DTdx7V0F9IAS7sZQuwylA",9.42857142857143,7,2,"1","1","0","1",1,55,"Pearl Nail Salon","Squirrel Hill","5829-5831 Forward Ave","Pittsburgh","PA","15217",40.4296,-79.9225,4.5,62,1
"283","2DpB16ZgO7ZEtXKl8u9XDg",7.4,5,6,"1","1","1","2",1,31,"Andrea Minor","","170 S Green Valley Pkwy, Ste 100, Sola Salons at The District","Henderson","NV","89012",36.0216,-115.082,5,20,1
"284","2EjSjsJhAIFA6o6jDZLT4A",9.66666666666667,6,4,"1","1","0","2",2,48,"V's Barbershop","","1 E Washington St, Ste 270","Phoenix","AZ","85004",33.448,-112.073,4,49,1
"285","2FQ4fhO6_gXCYRDsw5wtQw",9.57142857142857,7,2,"0","1","0","2",1,14,"Vip Nails","Sunrise","6520 E Lake Mead Blvd, Ste 103","Las Vegas","NV","89156",36.1967,-115.03,3.5,23,1
"286","2HVhVNyuRjugTulANXJX_w",10.2857142857143,7,2,"0","1","0","2",1,9,"Espres Nails and Spa","","18078 Royalton Rd","Strongsville","OH","44136",41.3148,-81.8281,2,35,1
"287","2IqODXx1v_CwIKT57Xvp6Q",9.42857142857143,7,2,"1","1","1","1",0,49,"Razor Sharp Barber Shop","","6849 W Flamingo Rd","Las Vegas","NV","89103",36.1141,-115.242,3.5,31,1
"288","2JPYp1ULfO-DigihEJwBHQ",9,5,2,"1","0","0","2",0,2,"The Barber Lounge","Westside","1123 S Rainbow Blvd","Las Vegas","NV","89146",36.1581,-115.245,4,4,1
"289","2JflQtoNTOIE4x4dVW1vXQ",13.1428571428571,7,4,"1","1","0","2",1,166,"Massage Envy - Chandler - Fulton Ranch","","4985 S Alma School Rd","Chandler","AZ","85248",33.2348,-111.857,2.5,18,1
"290","2JkjAiirsQdC5PTqM_d31w",8.71428571428571,7,4,"1","1","0","2",1,10,"Sir Barbershop","","15425 S 48th St, Ste 108","Phoenix","AZ","85044",33.3067,-111.98,4.5,30,1
"291","2Jwp4i5pT-Q1iYWzZPWwtQ",9,7,5,"1","1","0","2",1,15,"Stylez By Gary","","4727 E Cactus Rd, Ste 100, Studio 12","Phoenix","AZ","85032",33.5964,-111.98,5,22,1
"292","2K5AxPt2YEUDMsFUl_1yGQ",12,7,3,"1","1","0","2",1,48,"Lavish Spa","Chinatown","5700 Spring Mountain Rd","Las Vegas","NV","89146",36.1265,-115.219,4.5,36,1
"293","2L0tw_sugAtwhQWirE7RZg",8.57142857142857,7,3,"1","1","0","1",1,75,"Friendly Barber Shop","Anthem","10895 S Eastern Ave, Ste 170","Henderson","NV","89052",35.9938,-115.102,4.5,45,1
"294","2MkyQ4fYMS7BLaBQeYNtYQ",10.4285714285714,7,3,"1","1","1","2",1,179,"Ulta Beauty","","1450 N Litchfield Rd","Goodyear","AZ","85395",33.4626,-112.361,2,73,1
"295","2N6geaTHR3g7RW-V23FNOQ",9.42857142857143,7,3,"1","1","0","2",2,64,"Decor Nails & Spa","South Park","5110 Park Rd, Ste 2L","Charlotte","NC","28209",35.1611,-80.8493,4,72,1
"296","2NHKxgpci0veHamuDc0PCg",10,5,6,"1","1","1","2",1,3,"Peels and Products","","10401 N Scottsdale Rd","Scottsdale","AZ","85253",33.581,-111.926,5,4,1
"297","2NMJ4SUeYSaOhLrox-CALA",9.71428571428571,7,2,"1","1","0","2",1,43,"The Nail Boutique","","16 W Horizon Ridge Pkwy, Ste 110","Henderson","NV","89012",36.0115,-114.992,3.5,19,1
"298","2NczcJyFjRRDEsnoZMbPgw",10,5,3,"0","1","1","2",0,31,"Illusion Unlimited Salons","","5715 Broadview Rd","Parma","OH","44134",41.406,-81.6911,5,10,1
"299","2RQHE_AcB-l2-IKD8bFlEA",9.42857142857143,7,5,"1","1","0","1",0,32,"Boutique Brows","","7581 W Lake Mead Blvd","Las Vegas","NV","89128",36.1947,-115.258,5,15,1
"300","2R_z-xwaSFjuRAEWKX0oDw",8.83333333333333,6,2,"1","1","0","2",1,9,"Gorgeous Glo","Myers Park","1518 E 3rd St, Ste 100","Charlotte","NC","28204",35.2122,-80.8294,3.5,10,1
"301","2TFmNewkeZVUXXrHjfHPAQ",10,7,2,"1","1","0","2",1,23,"Desert Nails","","605 Mall Ring Cir","Henderson","NV","89014",36.0649,-115.039,2,36,1
"302","2TQxJ4zBHVYm92hybnIiMQ",9,6,2,"0","1","0","1",1,101,"Direct Beauty Supply","Chinatown","3545 S Decatur Blvd, Ste B","Las Vegas","NV","89103",36.1254,-115.209,4,38,1
"303","2UNEl16onzXuD2j8w-jsBA",6.71428571428571,7,3,"0","1","1","2",0,3,"The Nail Box LV","","4011 E Sunset","Henderson","NV","89014",36.0705,-115.086,5,12,1
"304","2UUKAgADXH-ESyRdAE0mYA",6.75,4,2,"1","1","1","2",0,2,"Scottsdale Skin Needling","","7514 E Monterey, Ste 3A","Scottsdale","AZ","85251",33.4862,-111.919,4.5,9,1
"305","2V41YCaXFOOPLdZm1e3exw",9.2,5,2,"1","0","0","1",1,14,"Adam's Barber Shop","","2245 Warrensville Ctr Rd","University Ht","OH","44118",41.4985,-81.5358,5,10,1
"306","2Vn4X68-M52ruCwoFp8XPQ",9,5,2,"0","1","1","4",1,1,"Patti Flint, MD, PC, FACS","","1520 S Dobson Rd, Ste 308","Mesa","AZ","85202",33.3874,-111.877,4.5,7,1
"307","2YDtLCjz_glt6-Zv48Hu2w",9.66666666666667,6,4,"1","1","1","2",2,391,"Cut Throat Barbershoppe","","7310 E Stetson Dr","Scottsdale","AZ","85251",33.4997,-111.924,4.5,119,1
"308","2YE6MbY-zZ46I6MhbB44Fw",10.1666666666667,6,2,"1","1","0","2",0,2,"R-Nails","","4236 Highway 49 S","Harrisburg","NC","28075",35.3223,-80.6475,4,4,1
"309","2ZnybrfhN8UFiMXtEamf0g",7.8,5,5,"1","1","1","2",1,4,"Ibi David Salon-Spa","","30590 Center Ridge Rd","Westlake","OH","44145",41.4241,-81.9591,4.5,6,1
"310","2_D3VDsyzrHrVeT1ebzAMQ",8.71428571428571,7,2,"0","1","0","1",1,28,"Tip Top Nail Salon I","","1933 W Main St","Mesa","AZ","85201",33.4132,-111.874,1.5,12,1
"311","2_RmQxF3if15GA_S-ncJog",6.42857142857143,7,2,"1","1","1","2",0,12,"Beatrice Keller Clinic Dermatology","","14506 W Granite Valley Dr, Ste 124","Sun City West","AZ","85375",33.6622,-112.373,3,5,1
"312","2_gVD4XlAfq1d1biOs52bw",7,7,2,"1","1","0","2",1,97,"Walgreens","","10710 W Mcdowell Rd","Avondale","AZ","85392",33.465,-112.291,2,18,1
"313","2a7BBQ1YMCCeQo8uoEUJ7Q",12.4285714285714,7,4,"1","1","0","2",1,61,"Celebrity Tanning","","6350 W Bell Rd, Ste 6350","Glendale","AZ","85308",33.6393,-112.196,4.5,19,1
"314","2aFGrMH67AImrssv6s0oUw",6.8,5,6,"1","1","1","2",1,4,"HiBrou","","1121 Boyce Rd, Suite1900","Pittsburgh","PA","15241",40.319,-80.1113,5,5,1
"315","2aJxre62sr4R98c7_Cfr0w",9.14285714285714,7,4,"0","1","0","2",0,59,"Chicsincity","Southwest","6030 W Windmill Ln, Unit C","Las Vegas","NV","89139",36.0426,-115.225,4.5,40,1
"316","2aRJgbY8ocrrOCqCLoIVvA",8.83333333333333,6,2,"1","1","1","2",1,6,"Nails & Polish","","5270 Center Rd","Brunswick","OH","44212",41.2365,-81.8758,3,4,1
"317","2avBf8USTY7TTixifD-1Rg",9.83333333333333,6,2,"0","1","0","2",1,3,"Liz Nails","","13896 Cedar Rd","University Heights","OH","44118",41.5011,-81.5397,1.5,7,1
"318","2bNpfhw9siK618jd9efbXg",12.7142857142857,7,2,"0","1","0","3",0,18,"Palm Beach Tan","","8422 West Thunderbird Rd, Ste 101","Peoria","AZ","85381",33.6114,-112.24,3,13,1
"319","2eOC0g-djmdW4s3Xr5tvlw",8.5,6,3,"1","1","1","2",0,2,"Define Permanent Makeup Academy & Studio","","209 E Baseline Rd, Ste E-108","Tempe","AZ","85283",33.3778,-111.936,5,9,1
"320","2ep5qQUYL0mTx5CanTAL2w",8.66666666666667,6,5,"1","1","0","2",1,14,"Kharizma Salon and Day Spa","","748 S Racetrack Rd","Henderson","NV","89015",36.0167,-114.951,3.5,17,1
"321","2gzGsVK2slWTW8r91YXtJQ",10,6,8,"1","1","0","2",1,59,"CT Rose Salon and Day Spa","Southeast","2660 E Sunset Rd","Las Vegas","NV","89120",36.0726,-115.114,4.5,19,1
"322","2hkQ5S6L_D7yX3pWtPw2Ww",6.16666666666667,6,5,"1","1","1","2",0,14,"Mustang Lashes Las Vegas","Spring Valley","9340 W Tropicana Ave, Ste 14","Las Vegas","NV","89147",36.1015,-115.296,5,16,1
"323","2kT-5q2h-117H9BrF6uS3A",9.42857142857143,7,5,"1","1","0","2",0,111,"Herbal Nails & Spa -  - Happy Valley","","2501 W Happy Valley Rd, Ste 32-1030","Phoenix","AZ","85085",33.7087,-112.115,3.5,49,1
"324","2ko-knnW48UoabFj4qRJVg",10,6,2,"1","1","0","2",0,12,"D & V Nails","","10707 Park Rd, Ste D","Charlotte","NC","28210",35.0902,-80.869,4.5,19,1
"325","2ks-dDzUK-XVopKGFybfIA",8.16666666666667,6,3,"1","1","1","4",1,3,"LaserMed Solutions","","777 N Rainbow Blvd, Ste 200","Las Vegas","NV","89107",36.1803,-115.243,1.5,9,1
"326","2ku3Nsf6eIM-7858K2ufLA",9.83333333333333,6,6,"1","1","0","2",1,2,"UROn Concept Salon","","2985 Triverton Pike Dr","Fitchburg","WI","53711",43.0168,-89.4298,4,4,1
"327","2l65Bn4BZjaoLIRAk088FA",9.57142857142857,7,2,"0","1","0","1",0,20,"Superior Nails","","2620 83rd Ave, Ste 106","Phoenix","AZ","85043",33.4248,-112.24,3.5,16,1
"328","2lA73JWUYeBEwe7qoAQWyw",6,7,3,"1","1","1","2",1,1,"All Sparkles","","Sola Salon 1940 W Chandler Blvd 5 Az 85224, Ste 9","Chandler","AZ","85244",33.326,-111.875,4.5,9,1
"329","2lAvN0x40Sgg5-rG8WEj3w",10,5,3,"1","1","1","2",0,29,"Linda Woodson Dermatology","","305 N Pecos Rd, Ste F","Henderson","NV","89074",36.2112,-115.249,2.5,48,1
"330","2lYMhZL2oHUpOQ2KjR5aJQ",8.57142857142857,7,5,"1","1","0","2",1,85,"Jeniza Nails and Spa","","1805 E Elliot Rd","Tempe","AZ","85284",33.3485,-111.911,4,72,1
"331","2oEXQryBIq6uFpbMWt7mAA",9,7,4,"1","1","1","4",1,5,"The Womb Wellness Center","","6200 Som Center Rd","Cleveland","OH","44139",41.3905,-81.4383,5,8,1
"332","2ompyGP88KzsQ6SY01d3tg",8.57142857142857,7,2,"1","1","0","2",1,258,"UpTown Barbershop","","1515 E Bethany Home Rd, Ste 170","Phoenix","AZ","85014",33.5228,-112.048,5,176,1
"333","2qv-Z1em0aEf_KidiOMNoA",10,6,3,"0","1","1","2",0,10,"The Naildresser","Southeast","2986 St Rose Pkwy","Henderson","NV","89052",36.0056,-115.118,5,3,1
"334","2rwXoPJlVu-PNg24MO2-YA",9.42857142857143,7,5,"1","1","0","2",1,41,"Diva Nails","","20945 N Pima Rd, Ste 100","Scottsdale","AZ","85255",33.6728,-111.89,4.5,43,1
"335","2s-Lyf4bWFdMwtqil6YrTA",10.1428571428571,7,4,"0","1","0","2",1,79,"Sport Clips Scottsdale","","7730 E McDowell Rd, Ste 106","Scottsdale","AZ","85257",33.4667,-111.914,4.5,15,1
"336","2sOI9rviW6cLFMaBzd_etQ",8,6,3,"1","1","1","2",0,3,"Hair & Makeup by C. Ness","","","Sunnyslope","AZ","85020",33.5653,-112.07,5,12,1
"337","2swc0fHeenLck3wPaCMUkw",10.1428571428571,7,2,"1","1","0","2",1,30,"Precision Cut","","70 S Val Vista Dr","Gilbert","AZ","85296",33.3493,-111.757,4.5,30,1
"338","2uGqLFmTRq4sDiGtlCg-Jw",10.7142857142857,7,5,"1","1","0","2",1,29,"Primp and Blow - A Blow Dry Bar","","10810 N Tatum Blvd, Ste 134","Phoenix","AZ","85028",33.5839,-111.979,4,20,1
"339","2wFsUNeT6ujp9fN4Y8Bhaw",9.83333333333333,6,2,"1","1","0","2",0,2,"Real Men's Barber Shop","","23623 N Scottsdale Rd, Ste D","Scottsdale","AZ","85255",33.702,-111.925,4.5,6,1
"340","2x6HTWUef1S9dv7g0TSjwg",10.5714285714286,7,3,"0","1","0","2",1,11,"Skin Lab Tattoo and Piercing","","3422 S Mill Ave","Tempe","AZ","85282",33.3914,-111.94,2,10,1
"341","2xbq764Hdi1MVMEtisqh9A",9.66666666666667,6,2,"1","1","0","2",2,29,"Riya's Nails","","22080 Lorain Rd","Fairview Park","OH","44126",41.4414,-81.865,3.5,23,1
"342","2xmKcEm11_64Z0YYd5gXCw",9.42857142857143,7,6,"1","1","0","2",0,8,"Bonjour Nail Spa","","11508 Providence Rd","Charlotte","NC","28277",35.053,-80.7708,4,18,1
"343","2xr1FLNwWrAHcDbt43RviQ",9.14285714285714,7,5,"1","1","0","2",0,77,"AZ-3D Nails & Spa","","3434 W Greenway Rd, Ste 102","Phoenix","AZ","85053",33.6261,-112.132,4,44,1
"344","2yHfJW1sooicMTsV-FUywQ",10.1428571428571,7,3,"1","1","0","2",0,27,"Fantastic Sams Hair Salons","","15231 N 87th St","Scottsdale","AZ","85260",33.6239,-111.892,3,17,1
"345","2zE2VW72hdMPmh3k72hrRg",10.1428571428571,7,3,"1","1","0","1",0,12,"Fantastic Sams Hair Salons","","8271 W Union Hills Rd Ste A-101","Glendale","AZ","85308",33.652,-112.235,3.5,15,1
"346","2zFJZKoe0RFrdtWiyrdvyQ",8,5,4,"1","1","1","2",1,7,"Model Lace Wigs and Hair","Eastside","4055 Spencer St, Ste 108","Las Vegas","NV","89119",36.1157,-115.129,3.5,5,1
"347","2zl7pG64nnr99GwQsE0cVA",7.8,5,3,"1","1","1","2",0,2,"Hair Design by Jenna","","5710 West Bell Rd, Ste 45","Glendale","AZ","85308",33.6393,-112.183,5,17,1
"348","3-HRZaa0d2OtK_35v-4wiQ",10.3333333333333,6,7,"1","1","1","2",1,6,"The Haven Spa","Orchard Ridge Community","1001 S Whitney Way","Madison","WI","53711",43.044,-89.4737,4.5,9,1
"349","30_vjM0mXNFQ_CeeJi3KJQ",9,6,2,"1","1","0","2",0,9,"Lily Nails","","3306 Warren Rd","Cleveland","OH","44111",41.4632,-81.8019,3.5,11,1
"350","313j5l0xup6rbhGmSvURiQ",7.5,4,2,"1","1","1","2",1,1,"Abundant Health Chiropractic","","4913 S Alma School Rd, Ste 4","Chandler","AZ","85248",33.2356,-111.859,3.5,8,1
"351","3188t5PMa_XLlah-2UBRoA",11.1428571428571,7,3,"1","1","0","2",1,110,"European Wax Center","","10625 N. Tatum Blvd, Ste D-115","Scottsdale","AZ","85028",33.5834,-111.977,4,42,1
"352","31Jm7-dyPY67lnVzFA8eQA",9.83333333333333,6,2,"0","1","0","2",0,20,"Salon Jovon","","8803 Brecksville Rd","Brecksville","OH","44141",41.3223,-81.6261,4.5,4,1
"353","31kmRcQS6SDKI_P0Ycv-VQ",9.57142857142857,7,4,"1","1","1","3",1,98,"The Red Door Salon & Spa","","195 Old Litchfield Rd","Litchfield Park","AZ","85340",33.4938,-112.355,4,39,1
"354","328dlBvzbEPh8tsPhIaQcw",8,6,2,"1","1","0","2",0,2,"Split Endz","","9015 W Union Hills Dr","Peoria","AZ","85382",33.6519,-112.253,3.5,3,1
"355","32dHOqW9-TmQ5TXd4OUW2Q",8.57142857142857,7,2,"1","1","0","2",1,64,"Kt's Nails & Spa","","7607 E Mcdowell Rd, Ste 104","Scottsdale","AZ","85257",33.4648,-111.917,4.5,41,1
"356","32jgqj-w9vWKkE3JSx8DAg",3,6,2,"1","1","0","2",0,37,"Goodyear Chiropractic","","11 W Van Buren St, Ste 28","Avondale","AZ","85323",33.4495,-112.35,5,20,1
"357","33J20N99zoeTtwrhaWulfg",10.1428571428571,7,6,"1","1","1","2",2,127,"Miss T's Beauty Lounge","Shadyside","5865 Ellsworth Ave","Pittsburgh","PA","15232",40.4573,-79.9291,4.5,96,1
"358","33PllEKHR4D0rVBWCUpSig",12.1428571428571,7,2,"0","1","0","1",1,40,"Great Clips","Southeast","1850 E Serene Ave","Las Vegas","NV","89123",36.0213,-115.127,3.5,19,1
"359","33pn2XX0L_1HwFMA7Agraw",8.16666666666667,6,5,"1","1","1","2",0,5,"Big Primpin","","21639 Ctr Ridge Rd","Rocky River","OH","44116",41.4584,-81.8591,5,22,1
"360","34UkrfpoAlXosoDo0HWxZQ",9.5,4,4,"1","1","1","2",0,1,"Identity Salon","","963 Beaver Grade Rd","Moon Township","PA","15108",40.5089,-80.2106,2,4,1
"361","355zu5pFcmXAHLz8PrSqzA",9,6,4,"0","1","0","2",1,5,"Studio Mz","","27629 Chagrin Blvd, Ste 101B","Beachwood","OH","44122",41.4627,-81.4829,5,4,1
"362","35mJm3bifyrZkZX0_rMa5A",9.5,6,5,"1","1","1","2",2,40,"Beautify Spa By International Skin Care","","8180 N Hayden Rd, Ste D-200","Scottsdale","AZ","85258",33.5559,-111.9,4,45,1
"363","369mB3EF28oA_qmHzSviMg",9.2,5,4,"1","1","1","2",0,8,"Marilyn's Make-Up Magic","","7425 E Shea Blvd, Ste 105","Scottsdale","AZ","85260",33.5814,-111.921,5,26,1
"364","36cByhAPNsbUIuJ59oUVGA",6.83333333333333,6,3,"1","1","1","2",1,8,"Laser By Christine","","5777 S Rural Rd, Ste 5","Tempe","AZ","85283",33.3708,-111.928,5,17,1
"365","36hVPtS0GAoVMw13IqEIDA",7,5,3,"1","1","0","2",1,126,"Bronzmopolitan","","15811 N Frank Lloyd Wright Blvd, Ste 125","Scottsdale","AZ","85260",33.6301,-111.889,5,48,1
"366","36hpvKWCT8_1kM8GrHIzMQ",9.83333333333333,6,2,"1","1","0","2",0,4,"Diva Nails","","2508 Village Green Pl","Champaign","IL","61822",40.0817,-88.2963,4.5,10,1
"367","373HGZUJm47MupH8QBx8Zg",12,7,2,"1","1","0","2",1,135,"West Coast Tattoo Parlor","Southeast","9151 S Las Vegas Blvd, Ste 320","Las Vegas","NV","89123",36.0234,-115.175,5,84,1
"368","378jQSEkVR5xW4OJNzdENw",9.28571428571429,7,4,"1","1","0","2",0,14,"Signature Nails and Spa","","4055 S Arizona Ave, Ste 5","Chandler","AZ","85248",33.2464,-111.839,2.5,19,1
"369","39YKi45PetO0UcQrG8Sncw",8.5,6,2,"0","1","0","2",1,59,"Wisemagic Tattoo","","7126 E Shea Blvd","Scottsdale","AZ","85254",33.5824,-111.927,4.5,51,1
"370","3A1Mz2AZ_bbyjAe3umHJlg",10.5714285714286,7,5,"1","1","1","3",0,10,"Primp and Blow","","2560 W Chandler Blvd, Ste 4","Chandler","AZ","85224",33.3067,-111.889,4,16,1
"371","3A9blBRRHiO5HPr0nH_YNg",8,5,2,"1","1","1","2",1,47,"Body Resonance Myofascial Wellness Center","Spring Valley","8724 Spanish Ridge Ave, Ste 120","Las Vegas","NV","89148",36.089,-115.282,5,30,1
"372","3AhneMYvRxxfCPYXc41Hrg",10.2,5,2,"0","1","1","2",1,3,"Typh's Braid Creations","","7146 E Independence Blvd","Charlotte","NC","28227",35.1633,-80.7412,2.5,4,1
"373","3BBkhChwKTEx9l83bIl1ng",8.83333333333333,6,3,"1","1","1","2",1,120,"Dean of Shadyside Salon","Shadyside","5404 Centre Ave","Pittsburgh","PA","15232",40.4559,-79.9382,4,74,1
"374","3BLCQLBwKU3glnfmTDjcdw",9.14285714285714,7,2,"0","1","0","2",1,21,"Talk Nail and Spa","","6534 W Indian School Rd","Phoenix","AZ","85033",33.495,-112.202,4,30,1
"375","3BabScKEHlgIFDlkJAErBg",8,5,2,"1","1","1","2",1,1,"Smile Arizona Dentistry","","8147 E Evans Rd, Ste 1","Scottsdale","AZ","85260",33.6158,-111.906,3,13,1
"376","3DSR6qWzNsi0Fr5tHD8KyA",12.2,5,5,"1","1","1","2",2,19,"Jennifer's Salon","","7345 E Shoeman Ln","Scottsdale","AZ","85251",33.5005,-111.922,5,7,1
"377","3EEt7hz9oLceKb_iIziClw",9.71428571428571,7,2,"1","1","0","1",0,20,"Regal Nails","Southeast","6005 S Eastern Ave","Las Vegas","NV","89119",36.0803,-115.122,3,7,1
"378","3ETvSLwjRQ5r3Wx-40_Ivg",9.5,6,4,"1","1","0","2",0,24,"Salon G","","4960 S Gilbert Rd, Ste 6","Chandler","AZ","85249",33.235,-111.792,4.5,37,1
"379","3G0SJcRuHaW8kLb9Q19Wkw",9.57142857142857,7,4,"1","1","0","2",1,42,"Avenue Nails","","55 E Horizon Ridge Pkwy, Ste 140","Henderson","NV","89002",36.0088,-114.993,2,39,1
"380","3GlemodptjCmWT20kZR3mw",12.8571428571429,7,2,"1","1","0","2",0,9,"Tan Republic - Tropicana","","4965 West Tropicana Ave, Ste 108","Las Vegas","NV","89103",36.0993,-115.209,4,13,1
"381","3HYlc_GLCADO8k7P-Hk5hg",9.83333333333333,6,2,"1","1","1","1",1,15,"Hair I Am Salon Studio","","11200 W Wisconsin Ave, Ste 1","Youngtown","AZ","85363",33.6035,-112.301,4.5,14,1
"382","3HcEyh8gJ3j7h5FYRjNWFg",9.57142857142857,7,2,"0","1","0","2",0,6,"My Nail Spa","","19423 R H Johnson Blvd, Ste 123","Sun City West","AZ","85375",33.6687,-112.369,3.5,22,1
"383","3Hz9nRYehXbfDcSOyuZ7Uw",9,7,3,"1","1","0","2",2,2,"Grand Avenue Tattoo","","2134 W Monte Vista Rd","Phoenix","AZ","85009",33.4712,-112.106,5,6,1
"384","3I23nQZ6k6U2G1NKpTpfhA",11.8571428571429,7,2,"1","1","0","1",1,68,"Comfort Foot","","1116 S Dobson Rd, Ste 105","Mesa","AZ","85202",33.3944,-111.876,4,29,1
"385","3Jdn2BBzNBjtCuHHbYxmyA",8.8,5,6,"1","1","1","2",1,111,"Salon Embellish","","3508 N 7th St","Phoenix","AZ","85014",33.4888,-112.066,4.5,45,1
"386","3Jf6NdoBF0RIyMuni2Xiag",7.33333333333333,6,2,"1","1","1","1",0,2,"Transitions Barbershop","Junction Ridge","610 Junction Rd, Ste 209","Madison","WI","53717",43.0732,-89.5269,5,3,1
"387","3JgHBYltzNEHwpA6h9ekTg",9.57142857142857,7,5,"1","1","0","2",1,68,"Signature Nails & Spa","Spring Valley","10120 W Flamingo Rd, Ste 3","Las Vegas","NV","89147",36.1165,-115.313,4,89,1
"388","3KDzLREC-dxMkGAmt8Mcgw",7.85714285714286,7,2,"0","1","1","2",1,1,"Exceptional Hair Designs By Pamela Hannam","Spring Valley","Envogue Salon","Las Vegas","NV","89147",36.1164,-115.297,4.5,8,1
"389","3LF3HqwhUJYT9ma48AdSiw",9.42857142857143,7,6,"1","1","0","3",2,23,"Carmen Carmen Prestige Salon & Spa at Belk","South Park","4400 Sharon Rd, Fl 4","Charlotte","NC","28211",35.154,-80.8319,4.5,11,1
"390","3LtBbiCfZiRd_32RlbQInQ",8,4,2,"1","1","1","2",0,10,"Megan Trivette","","","Las Vegas","NV","89101",36.1697,-115.124,5,9,1
"391","3MBON3dW2a1NKjgo9H780Q",9,5,3,"1","1","1","4",1,37,"Anson Edwards & Higgins Plastic Surgery Associates","Spring Valley","8530 W Sunset Rd, Ste 130","Las Vegas","NV","89113",36.0714,-115.278,4.5,54,1
"392","3MI2dz7LAR4qN67qdbt6HA",9.28571428571429,7,4,"1","1","0","3",1,6,"18|8 Fine Men's Salon - Ocotillo","","1155 W Ocotillo Rd, Ste 7","Chandler","AZ","85248",33.2467,-111.867,5,24,1
"393","3M_9xRE4UfisrRw_iEX00Q",8.8,5,5,"1","1","1","4",2,1,"Arthur M. Cambeiro, MD","Eastside","3186 S Maryland Pkwy","Las Vegas","NV","89109",36.1332,-115.136,5,11,1
"394","3NCnsa2MLUXiJ8YauUMFoA",7.66666666666667,6,2,"1","1","0","2",1,30,"Black Sails Tattoo","","1400 S Mcclintock Dr, Ste 7","Tempe","AZ","85281",33.4128,-111.909,5,20,1
"395","3NX8JdSYD22O_b8hlNZxYQ",8.71428571428571,7,2,"1","1","0","2",1,135,"A Cut Above Hair Studio","Centennial","6530 N Buffalo Dr, Ste 110","Las Vegas","NV","89131",36.2807,-115.265,4,41,1
"396","3OasraD_TKCqLWc724DDUw",7.4,5,4,"1","1","0","2",1,7,"All Pro Barber Shop","","2344 E Baseline Rd, Ste 103","Mesa","AZ","85204",33.3795,-111.783,4,17,1
"397","3PPY9xCk0-fEtva_R_Zizg",11.4285714285714,7,2,"1","1","0","1",0,33,"Great Clips","","1320 W Elliot Rd, Ste 105","Tempe","AZ","85284",33.3495,-111.96,3,12,1
"398","3QGsWq_fEKzUMXKw6MK1jg",9,5,4,"1","1","1","2",1,5,"Arizona Eye Institute & Cosmetic Laser Center","","19052 N R H Johnson Blvd","Sun City West","AZ","85375",33.6577,-112.353,4,21,1
"399","3R7iBsIKQF0qvDvx8uTYfA",8.85714285714286,7,2,"1","1","0","2",0,6,"Kim's Nails","","2990 Cahill Main","Fitchburg","WI","53711",43.0183,-89.4224,4.5,16,1
"400","3RtqDazn1d5PoFXZ4v94wg",9,7,3,"1","1","1","2",1,41,"Lavender's Day Spa","","17173 N Litchfield Rd, Ste 30","Surprise","AZ","85374",33.6401,-112.358,3.5,25,1
"401","3S5bhV0K2FoqIOjIuIEmcA",8.71428571428571,7,5,"1","1","0","2",1,217,"Sweet Nails","Spring Valley","8665 W Flamingo Rd, Ste 122","Las Vegas","NV","89147",36.1138,-115.281,4.5,77,1
"402","3SwWrjosl7nOjYTM7pk8og",9.42857142857143,7,4,"1","1","0","2",0,32,"Ovation Nails and Spa","","23271 N Scottdale Rd","Scottsdale","AZ","85255",33.6973,-111.925,4,34,1
"403","3UKEwUPyNxPTLAVsw4nWEA",10.4285714285714,7,2,"0","1","0","1",1,11,"MasterCuts","","5000 S Arizona Mills Cir # 108, Arizona Mills","Tempe","AZ","85282",33.3849,-111.964,4,18,1
"404","3VpRikz_I48e-7m0Yy-G7Q",11.5714285714286,7,2,"1","1","1","2",0,151,"Elements Massage","","630 E Bell Rd, Ste 102","Phoenix","AZ","85022",33.642,-112.066,4.5,43,1
"405","3Wq2yT3elctAjDqb8kMraQ",8.85714285714286,7,2,"1","1","0","2",2,104,"Vision Yoga & Wellness","Ohio City","1861 W 25th St","Cleveland","OH","44113",41.486,-81.7045,4.5,24,1
"406","3XlJ5MXBQDxN_c54dGLRiQ",9.14285714285714,7,3,"1","1","0","2",0,14,"Kelly D. Nails & Spa","","6135 N 35th Ave, Ste 127","Phoenix","AZ","85017",33.5252,-112.13,3,20,1
"407","3YReCcaCFkF4jy9Ey-Ms5Q",11.5714285714286,7,2,"1","1","1","2",1,101,"Elements Massage","","6204 N Scottsdale Rd, Ste 103","Scottsdale","AZ","85253",33.5298,-111.928,4,15,1
"408","3ZPlK9cFXYsKIVMgdT4yVA",13,7,2,"1","1","0","2",1,139,"REVIV - Las Vegas","The Strip","3799 S Las Vegas Blvd","Las Vegas","NV","89109",36.1034,-115.169,4.5,58,1
"409","3_QNAH8yVzY0sBPftWyNhQ",11,7,3,"1","1","0","1",1,2388,"The Foot Spa","Chinatown","5030 Spring Mountain Rd, Ste 10","Las Vegas","NV","89146",36.127,-115.21,4,654,1
"410","3_SA-8Y7geULcNHATYumEQ",8.85714285714286,7,2,"1","1","0","1",0,36,"Aloha Quality Hair Salon","Southwest","7910 S Rainbow Blvd, Ste 115","Las Vegas","NV","89139",36.0439,-115.242,4.5,64,1
"411","3_r9NM_6anMWEmgajb7h1Q",8.57142857142857,7,4,"1","1","0","1",0,24,"PV Barbers","","3202 E Greenway Rd, Ste1603","Phoenix","AZ","85032",33.6269,-112.013,4.5,17,1
"412","3b95c7v0sR0s2VlBUQ0Dpw",10,7,2,"1","1","0","2",1,85,"LunchboxWax North Scottsdale","","23271 N Scottsdale Rd, Ste A110","Scottsdale","AZ","85255",33.6974,-111.923,5,57,1
"413","3caAjQupiFcX209GaLq9Lw",9.42857142857143,7,2,"1","1","0","2",1,12,"Lami Nails Spa","Anthem","2230 W Horizon Ridge Pkwy, Ste 100","Henderson","NV","89052",36.0066,-115.085,5,32,1
"414","3clNGTYOHTnDUZPUnihL3g",7.33333333333333,6,2,"1","1","0","2",1,10,"SIX16 Body Piercing","Lawrenceville","4417 Butler St","Pittsburgh","PA","15201",40.4721,-79.9597,5,37,1
"415","3d5e5ogLl0fDGZfaCBNQrg",11.1428571428571,7,3,"1","1","0","2",0,396,"702 Nail Lounge","Anthem","10271 S Eastern Ave, Ste 114","Henderson","NV","89052",36.003,-115.111,4.5,291,1
"416","3dLHLQ7KxPv7AAejrL5ukw",10.2857142857143,7,10,"0","1","1","2",1,75,"Humble Bee Beauty Studio","Southwest","7355 S Buffalo Dr","Las Vegas","NV","89113",36.0538,-115.264,5,54,1
"417","3drebajBhZOURJX-Jzwx1w",8.6,5,4,"1","1","0","2",1,8,"West Park Beauty Salon","","17100 Lorain Ave","Cleveland","OH","44111",41.4507,-81.8155,5,9,1
"418","3gEvZwJO5eoLKVeLDuQu8w",9.57142857142857,7,2,"1","1","0","2",1,21,"Nail Depot & Spa","","6030 W Behrend Dr, Ste 131","Glendale","AZ","85308",33.6666,-112.188,3,28,1
"419","3hVNB2plzW9c3UY3f7ur8Q",10.4285714285714,7,2,"1","1","0","2",1,52,"Tisun Beauty","Steele Creek","9011 S Tryon St","Charlotte","NC","28273",35.1354,-80.938,4.5,13,1
"420","3hwX3hWFJaH1Ehd1eiJDfw",9.42857142857143,7,2,"1","1","0","2",1,89,"The Lady Luck Tattoo Gallery","","961 E Guadalupe Rd","Tempe","AZ","85283",33.3637,-111.927,4.5,52,1
"421","3i2CjqzyngAe1KELoetX7Q",8,6,2,"0","1","0","3",1,7,"Poppy's Home Decor","","7143 E Southern Ave, Ste 101","Mesa","AZ","85209",33.3925,-111.677,3,6,1
"422","3iC-4jQ5BPSI-7lMbLmUCA",9.57142857142857,7,5,"1","1","0","2",0,7,"Wild Nails","","4955 E Craig Rd, Ste 4","Las Vegas","NV","89115",36.24,-115.066,3.5,11,1
"423","3iewRRYvMWqXEmpQLDmJBg",8.2,5,2,"1","1","1","2",0,8,"T L Jones Salon","","2918 Crossing Ct","Champaign","IL","61822",40.0851,-88.2944,5,7,1
"424","3jJ836RF3OBFly_Ry9xojQ",9.33333333333333,6,4,"1","1","1","2",1,25,"Suite One Salon","Westside","9931 W Charleston Blvd, Ste 1","Las Vegas","NV","89117",36.1578,-115.313,4.5,58,1
"425","3kUqNxO1rkDDb89GAfyNgw",8.28571428571429,7,3,"1","1","1","2",1,104,"Evolve Wellness Spa","Shadyside","228 S Highland Ave","Pittsburgh","PA","15206",40.458,-79.9254,4.5,66,1
"426","3n3DdNTPxbCrXFby2uxmeg",11.5714285714286,7,2,"0","1","0","2",1,145,"Elements Massage","Anthem","2970 Saint Rose Pkwy, Ste 130","Henderson","NV","89052",36.0059,-115.117,3.5,55,1
"427","3nD_gIjT2jai-U23TOEbUg",9,6,5,"1","1","0","2",1,5,"Enhanced Image Med Spa","","7942 W Bell Rd, Ste 2","Glendale","AZ","85308",33.6383,-112.23,5,14,1
"428","3pG4HRUL1sv1UaxWIEj6Rg",9.66666666666667,6,5,"1","1","1","2",1,129,"Epic Salon","","3120 S Gilbert Rd, Ste 1","Chandler","AZ","85249",33.261,-111.79,4,57,1
"429","3pnvI_eEHzEWQJmXdcJ3rw",7,6,5,"1","1","1","1",1,1,"The Thread and Lash","","633 E Ray Rd","Gilbert","AZ","85296",33.3204,-111.776,5,14,1
"430","3rG7LeEXtC6C2ihRbn40LA",8,6,4,"1","1","0","2",1,5,"Kelly Nail & Spa","","32619 N Scottsdale Rd, Ste 107","Scottsdale","AZ","85266",33.7816,-111.922,2.5,15,1
"431","3rJJeMOkVi_wEura5UCQqw",14,7,4,"1","1","0","2",1,190,"Massage Envy - Rock Spring","","7175 W Lake Mead Blvd, M03-00168","Las Vegas","NV","89128",36.1956,-115.249,3,34,1
"432","3rQvXPkvIZM7NBOGMyvHww",10,7,2,"1","1","0","2",0,26,"Sport Clips","","1135 Stonecrest Blvd","Fort Mill","SC","29708",35.047,-80.9958,4,4,1
"433","3rgUFMgimv9twiyFxucUhg",9.42857142857143,7,2,"0","1","0","2",1,82,"Lee's Nails","Westside","8465 W Sahara Ave, Ste 112","Las Vegas","NV","89117",36.143,-115.276,4.5,26,1
"434","3rptIkeGoVRdPF4v6omLOg",9.71428571428571,7,6,"1","1","1","2",2,23,"Sunless Boutique","The Lakes","9921 Mahogany Grove Ln","Las Vegas","NV","89117",36.1374,-115.313,5,20,1
"435","3s1G5Av7fVZ_XHH7kLfc8A",8.71428571428571,7,5,"1","1","0","1",1,79,"Le Nails & Spa","","1720 W Horizon Ridge Pkwy, Ste 120","Henderson","NV","89012",36.0115,-115.063,4.5,60,1
"436","3sDFMC9dA9pBkGEP3UD9NA",9.42857142857143,7,2,"1","1","0","2",1,36,"Guy and Gal Salon - Chandler","","2040 S Alma School Rd, Ste 6","Chandler","AZ","85286",33.2748,-111.86,4,11,1
"437","3u-LmqeJBYNe6JZ18GrM_Q",9.66666666666667,6,5,"1","1","1","2",3,29,"Ann Reed Waxing & Skin Care","","7345 E Shoeman Ln","Scottsdale","AZ","85251",33.5005,-111.922,5,22,1
"438","3vfwZkmxVsipUe4jdrkBkg",7,6,3,"1","1","0","2",1,11,"Krazy Kats Tattoo & Body Piercing","Cotswold","4435 Monroe Rd","Charlotte","NC","28205",35.1946,-80.785,4.5,17,1
"439","3w1LqiQ4lDE99XtcVzAd9Q",9.66666666666667,6,3,"0","1","1","2",0,2,"Park 51 Salon","","10701 Park Rd, Ste F","Charlotte","NC","28210",35.0908,-80.868,2.5,8,1
"440","3wRLZ_j7rtpHsHwszCj6fg",6,7,3,"1","1","0","2",1,8,"Arizona Wig Boutique","","7074 E 5th Ave","Scottsdale","AZ","85251",33.4984,-111.929,4,17,1
"441","3xEO9oyGqfO_O8eSlxYTBA",8.85714285714286,7,4,"1","1","1","2",1,241,"The Spa at Lakeside 2.0","Summerlin","2620 Regatta Dr, Ste 112-114","Las Vegas","NV","89128",36.2075,-115.268,5,114,1
"442","3xIqAv3XFV1Zw7JE9agv6w",8.66666666666667,6,2,"0","0","1","2",0,17,"Monica Lanter Hairstylist","","9020 S McClintock Dr, Ste 3","Tempe","AZ","85284",33.3324,-111.912,4.5,13,1
"443","3xckG-BBA7_ozunrtFRU3Q",8.5,6,4,"0","1","1","2",1,37,"Capretti & Co","","1925 Settlers Ridge Ctr","Pittsburgh","PA","15205",40.4387,-80.1466,5,24,1
"444","3zCnPRue9C2O5k7Ed7QGGg",8.85714285714286,7,5,"1","1","0","1",1,44,"Magic Brows","Northwest","3250 N Tenaya Way, Ste 102","Las Vegas","NV","89129",36.2199,-115.25,5,26,1
"445","3zPmwa_pJDk2VbHBV2QA9g",9,7,2,"1","1","1","2",0,7,"NOIR Salon","","25546 N Lake Pleasant Pkwy","Peoria","AZ","85383",33.7156,-112.271,5,4,1
"446","40_Bs5LCTUsu5ty3TxeryQ",8.6,5,3,"1","1","1","3",1,59,"Modern Salon & Spa","First Ward","214 N Tryon St, Ste 200","Charlotte","NC","28202",35.2278,-80.8411,4,39,1
"447","418gUrl8ganxLJkgW6_Q0A",11.2857142857143,7,2,"1","1","0","2",1,46,"Elements Massage","","3431 W Frye Rd, Ste 6","Chandler","AZ","85226",33.2958,-111.901,4.5,39,1
"448","41H6zhehn6vY_b0f2JPuwA",8.42857142857143,7,5,"1","1","0","2",1,168,"The Lash & Sugar Company","","7040 E Indian School Rd","Scottsdale","AZ","85251",33.4952,-111.929,5,160,1
"449","42jge5SiDoQV8WwGpxaPVw",11.8571428571429,7,2,"0","1","1","2",0,29,"Beauty Therapy","Westside","7341 W Charleston Ave, Ste 150","Las Vegas","NV","89138",36.1579,-115.252,5,11,1
"450","44BkUvQ0heALA4irQPYcAg",9,5,4,"1","1","1","2",0,10,"Piedmont Plastic Surgery & Dermatology","Ballantyne","5815 Blakeney Park Dr","Charlotte","NC","28277",35.0332,-80.8069,3.5,17,1
"451","44pzzXXYBtbC0QxHFosagw",9.28571428571429,7,4,"1","1","0","1",1,9,"Perfect Arch Salon","","313 N Mattis Ave, Ste 106","Champaign","IL","61820",40.1135,-88.246,4.5,54,1
"452","45AMTDloGhFf2Xld0oZaxQ",11.5714285714286,7,3,"1","1","1","2",0,6,"Thai Day Spa","Westside","7871 West Charleston Blvd, Ste 150","Las Vegas","NV","89117",36.1586,-115.263,5,11,1
"453","45C_ZWEWelkv0kQMw6-dMQ",10,5,3,"1","1","0","2",1,11,"Nappy By Nature","","2618 W Baseline Rd","Mesa","AZ","85202",33.3786,-111.891,3.5,14,1
"454","466ws1Gu2SuCLkpnUwoYGA",9.71428571428571,7,3,"1","1","0","1",0,14,"Fantastic Sams","","5546 Camino Al Norte","North Las Vegas","NV","89031",36.2604,-115.154,3.5,14,1
"455","47GGytn1V2P9N8DQFyaE8w",8.66666666666667,6,5,"1","1","1","2",1,52,"Skin Frenzy","","318 E Thomas Rd","Phoenix","AZ","85012",33.4804,-112.069,5,15,1
"456","47h0gyvH9zxU0FOo5cPLrQ",9.6,5,4,"1","1","1","2",1,42,"Botanical Tans","South Park","6324 Fairview Rd, Ste 160-112","Charlotte","NC","28210",35.1487,-80.8349,5,38,1
"457","47qzYH9sRO1BfgklEr6WNw",8,5,2,"1","1","0","2",0,35,"Public Cuts N Styles","","5835 N 16th St, Ste B","Phoenix","AZ","85016",33.5231,-112.047,5,13,1
"458","47v8R_1oTo84e_vst2YKWg",10.8571428571429,7,2,"1","1","0","1",1,71,"Great Clips","","1230 E Baseline Rd","Mesa","AZ","85204",33.3794,-111.806,4,4,1
"459","487mtOBBHP4maGMFHvjZxg",8,5,5,"1","1","1","2",1,8,"Facials By Ann","","15455 N Greenway Hayden Lp, Ste C-14","Scottsdale","AZ","85260",33.6259,-111.92,5,8,1
"460","496tygRfXF-pbvgeHOwijQ",10,6,4,"1","0","0","1",0,1,"Nex Level Barbershop III","Southeast","9890 South Maryland Pkwy, Ste 4","Las Vegas","NV","89183",36.0102,-115.135,1,10,1
"461","49gG0XaVY7Nirm2Ss7ArHw",7,6,8,"1","1","1","2",1,2,"Bashful Lash","","9401 W Thunderbird Rd","Peoria","AZ","85381",33.6093,-112.262,5,8,1
"462","4Ast5npg50uPqUvluY3yYw",10.5714285714286,7,3,"1","1","0","1",0,98,"Eyebrows R Us","Westside","4530 Meadows Ln, Suite C-2","Las Vegas","NV","89107",36.1716,-115.202,4,13,1
"463","4BtLjFr4h7HuMBiqeL1hnQ",10.7142857142857,7,2,"1","1","0","1",0,30,"Great Clips","","17650 W Elliot Rd","Goodyear","AZ","85338",33.3576,-112.429,2.5,4,1
"464","4DIMIo1th3xqykF8tGZ9HA",10,6,4,"0","1","0","1",0,5,"Nails, Hair and Tanning","Old Brooklyn","4261 Fulton Rd","Cleveland","OH","44144",41.4409,-81.7225,2.5,6,1
"465","4E5oaWof152dmbZ1FeTYsw",11.1428571428571,7,4,"0","1","1","2",0,39,"Hand & Stone Massage and Facial Spa","","31309 N Scottsdale Rd","Scottsdale","AZ","85265",33.7682,-111.924,4,9,1
"466","4EL3qM2-Aju9Qam0wDkEiA",9.71428571428571,7,4,"1","1","0","2",1,42,"Star Nails and Wax","","7582 W Cactus Rd, Ste B3","Peoria","AZ","85381",33.5958,-112.223,4,22,1
"467","4EbC7eRHHm1AySGi6pC3Tg",8.71428571428571,7,4,"1","1","0","1",1,229,"Ann's Salon","Chinatown","5700 Spring Mountain Rd","Las Vegas","NV","89146",36.1262,-115.219,4,93,1
"468","4EeCBeKWhra4DNPkjjgb6g",9.42857142857143,7,2,"1","1","0","2",0,1,"Regal Nails","","18551 N 83rd Ave","Glendale","AZ","85308",33.6508,-112.235,3.5,3,1
"469","4FCdT9Do9KMoPrZL0ZngxA",9.28571428571429,7,2,"1","0","0","2",1,25,"Herbal Wellness Center","","4126 W Indian School Rd","Phoenix","AZ","85019",33.4952,-112.147,4.5,49,1
"470","4GJc_Ls4f2uVptSfFQTL5g",8.28571428571429,7,3,"1","1","0","2",1,67,"Fu's Custom Tattoos","NoDa","3200 N Davidson St","Charlotte","NC","28205",35.2469,-80.8055,4.5,35,1
"471","4GMGNLV0Y6wBQTsrDRqOww",8.57142857142857,7,4,"1","1","0","2",2,27,"Glow Tan & Spa","","6685 Wilson Mills Rd","Mayfield","OH","44040",41.5394,-81.4376,4,4,1
"472","4HoCAPiFH2BFznYxGR7sjQ",9.42857142857143,7,2,"0","1","0","1",1,141,"Lovely Nails","Spring Valley","5693 S Jones Blvd","Las Vegas","NV","89118",36.0865,-115.226,4,61,1
"473","4IN-mVYkAObHqBqcedb2Tw",12,7,3,"1","1","0","1",0,211,"UE Foot Spa","","4230 S Decatur, Ste 100","Las Vegas","NV","89103",36.1133,-115.207,3.5,114,1
"474","4Ig2hk20mBj9rtwwO4wB_A",9,6,8,"1","1","0","2",1,138,"Chloe Spa","Summerlin","911 N Buffalo Dr, Ste 109","Las Vegas","NV","89128",36.182,-115.261,4.5,128,1
"475","4IqzhMpKHEspD-2bASdPow",6,6,3,"1","0","0","2",1,12,"Typecast Ink Tattoo & Piercing Studio","","602 E Green St, Ste 2","Champaign","IL","61820",40.1108,-88.2302,4.5,14,1
"476","4IzL-AcIutABYbaA4rctfA",11.3333333333333,6,2,"1","1","0","2",1,3,"Lotus Salon","","907 Nygaard St","Stoughton","WI","53589",42.9222,-89.2499,3.5,12,1
"477","4JFQniQgbbcDCWoqgUYfNQ",9.42857142857143,7,4,"1","1","0","2",1,86,"Sport Clips","Highland Creek","1816 E Arbors Dr, Ste 410","Charlotte","NC","28262",35.3366,-80.7544,3.5,12,1
"478","4K5HYoCzTf7Ygg6Z1SHhng",5.8,5,6,"1","1","1","2",1,2,"Lash Out Couture","","3301 N Miller Rd, Ste 15","Scottsdale","AZ","85251",33.4864,-111.917,5,11,1
"479","4KtAg9IWyh5pFqmT0E30zw",8.85714285714286,7,2,"0","1","0","2",0,19,"CosmoProf","Northwest","3900 N Rancho St, Ste 101","Las Vegas","NV","89130",36.2294,-115.222,3.5,7,1
"480","4KzQf30PVlD6OC9VOii9Ww",8,5,6,"0","1","1","2",2,50,"Serenity Skin Spa","","Center For Alternative Medicine, 9819 N 95th, Ste 101","Scottsdale","AZ","85258",33.5756,-111.875,5,28,1
"481","4N9TJmEr5EJYYb1T9Tb1VA",10.8571428571429,7,7,"0","1","1","1",0,19,"Skintastic Studio","Anthem","10050 S Eastern Ave, Ste 120","Henderson","NV","89052",36.0069,-115.112,5,31,1
"482","4NCcfA5eu4ngwUSxurF_AQ",7.57142857142857,7,3,"1","0","0","2",0,3,"Charlotte Tattoo Company","Plaza Midwood","1514 Central Ave","Charlotte","NC","28205",35.2201,-80.8128,5,20,1
"483","4NKE4_pGu1SS5QOwMbYNlA",8.5,6,5,"1","1","0","2",2,14,"Michael Samuel Studios","","7001 E Main St","Scottsdale","AZ","85251",33.493,-111.93,4.5,12,1
"484","4OCHor3NL5FymD4Q57yB_w",11.1428571428571,7,3,"1","1","0","1",0,42,"Bath & Body Works","Steele Creek","14135 Steele Creek Rd, Bldg N, Ste 30","Charlotte","NC","28273",35.1022,-80.9862,4,4,1
"485","4OhQMzX1xrc8_bGwSpmMEw",9.57142857142857,7,2,"0","1","0","2",1,7,"Star Nails","","6530 Monona Dr","Monona","WI","53716",43.0458,-89.3242,3,25,1
"486","4OjdqmThsVRglRccfqDAWQ",9,6,3,"1","1","0","2",0,20,"Nail Craze","Eastside","2650 S Maryland Pkwy","Las Vegas","NV","89109",36.1421,-115.135,4,27,1
"487","4PRIMlOVtl8yvAjNcNzw3w",14,7,2,"1","1","0","1",0,48,"Walgreens","","1654 N Pebble Creek Pkwy","Goodyear","AZ","85395",33.4654,-112.393,4,3,1
"488","4Pc6kh6EbsHZEu4G9lFngg",10,6,2,"1","1","0","3",1,5,"Nationwide Beauty Supply","","2045 W Main St, Ste 102","Mesa","AZ","85201",33.4144,-111.876,3.5,7,1
"489","4PmTIZC2eVqMTHoKnbwsyw",11.2857142857143,7,2,"1","1","0","1",1,119,"Great Clips","Southeast","467 E Silverado Ranch Blvd, Ste 175","Las Vegas","NV","89183",36.0125,-115.153,3,20,1
"490","4Q-P8lbk9d5zO_ireZFRPQ",7.28571428571429,7,4,"0","1","0","2",2,198,"Hair Experts Plus","Westside","7520 Westcliff Dr","Las Vegas","NV","89145",36.1746,-115.259,4.5,130,1
"491","4QZmLAOqhGWYuMSOC40vwQ",12.1428571428571,7,2,"0","1","0","4",1,352,"Chanel","The Strip","3600 Las Vegas Blvd S","Las Vegas","NV","89109",36.114,-115.175,4,64,1
"492","4SNTdlEGHVmwJCMbMUNJhQ",8.66666666666667,6,2,"1","1","1","2",1,1,"Express Barber Shop","","3012 Griswold St, Ste 4","North Las Vegas","NV","89030",36.2144,-115.101,4,9,1
"493","4Sim3ZjIhtfmrZCXIQNkBA",8.83333333333333,6,4,"1","1","1","2",1,45,"Pure Elements Salon","","8248 W Deer Valley Rd, Ste 104","Peoria","AZ","85382",33.6831,-112.237,5,30,1
"494","4SxQLZ2EcjlFRG6BvCi0iA",10.2857142857143,7,6,"1","1","0","2",1,127,"Gianna Christine Salon + Spa","Anthem","2265 Village Walk Dr, Ste 105","Henderson","NV","89052",36.021,-115.088,4,75,1
"495","4T4DEudSIZw-Bo1CMv3UeA",10,4,4,"1","1","1","2",1,18,"Michelle O'Bannon- The Wax Shack","Spring Valley","Scandals Salon, 4235 S Fort Apache, Ste 100","Las Vegas","NV","89147",36.1121,-115.298,5,38,1
"496","4TAOxpO7M-jtNwWBBZH5_g",10,6,6,"1","1","0","2",1,83,"Queen Nails & Spa","","3542 W Glendale Ave","Phoenix","AZ","85051",33.5396,-112.137,3.5,49,1
"497","4TV4jvunfPZVjDI4A-Eabw",7.6,5,5,"1","1","1","2",0,1,"Willow Room Salon","","15800 Detroit Ave","Lakewood","OH","44107",41.4854,-81.8081,5,3,1
"498","4UhDvJJc7-GVn-lLs0_EMg",11,7,6,"1","0","1","1",0,3,"Stylo Threading","Sunrise","2184 Clancy St","Las Vegas","NV","89156",36.1996,-115.059,5,7,1
"499","4UhY-iYEfzGfPm664KG9BA",9.71428571428571,7,5,"1","1","0","2",1,135,"Nail Time & Wax","","840 E Southern Ave, Ste 104","Tempe","AZ","85282",33.3933,-111.927,2.5,78,1
"500","4V5JYFTWXFlsn36AASjlDQ",11.3333333333333,3,2,"1","1","1","2",0,4,"Hello Kayla Ranae Nails","Southeast","9310 S Eastern Ave","Las Vegas","NV","89123",35.996,-115.124,5,15,1
"501","4X6uteFlmeSYRXCn2yhPUg",8.5,4,2,"1","1","1","2",1,35,"Theory Salon","South End","115 E Park Ave","Charlotte","NC","28203",35.2146,-80.8561,5,9,1
"502","4YBQhiQmo0UG67oyBuUXIw",9,6,7,"1","1","1","1",0,1,"USA Nails & Spa","","1517 Golden Gate Plz","Mayfield Heights","OH","44124",41.5231,-81.4494,2,6,1
"503","4ZR1M4aPM1CYXzYEjvmy9w",9.33333333333333,6,2,"1","1","0","2",2,146,"TrimBody M.D.","","9310 S Eastern Ave, Ste 122","Las Vegas","NV","89123",36.0196,-115.117,4,55,1
"504","4Zo0mPRLQv9xSU6xBVBCjw",7.57142857142857,7,3,"1","1","1","2",1,4,"Harbor Lake Therapeutic Massage","Summerlin","8440 W Lake Mead Blvd, Ste 110","Las Vegas","NV","89128",36.1995,-115.279,5,24,1
"505","4Zqv7NyeiuqMOV8wWlhB4A",8.14285714285714,7,4,"1","1","1","2",1,1,"ReVamp Extensions","Spring Valley","9640 W Tropicana Ave, Ste 125, Studio102","Las Vegas","NV","89147",36.1012,-115.302,4.5,7,1
"506","4ayn3QyeT7iEqfS-9bUMsQ",5.66666666666667,6,2,"1","1","1","1",0,131,"Bliss Massage Therapy","","325 Matthews Mint Hill Rd, Ste 107","Matthews","NC","28105",35.1176,-80.7173,5,8,1
"507","4bmaBgd-GfVO94K5BlXk-g",8,7,3,"1","1","0","2",1,22,"Blue Buddha Tattoo","Spring Valley","4160 S Fort Apache Rd, Ste A","Las Vegas","NV","89147",36.1141,-115.296,5,28,1
"508","4cHSwhkKBAe4LeuPRp_Mxg",8,6,2,"1","1","1","2",1,16,"Be Studios","Edgewater","10400 Clifton Blvd","Cleveland","OH","44102",41.4852,-81.7563,4.5,9,1
"509","4dxsxSavxaFQN2tDAyP0Ew",9,6,4,"1","1","1","2",1,122,"Brows & Waxing With Laura","","7046 E Main St, Ste 109, The Salon Suites on Main","Scottsdale","AZ","85251",33.4932,-111.929,5,67,1
"510","4eoZjaMw54QHoAHHcvcZdg",10.4285714285714,7,2,"1","1","0","1",1,48,"Sally Beauty Supply","","4513 E Cactus Rd","Phoenix","AZ","85032",33.5987,-111.986,4,6,1
"511","4fTHwn95Ovc6eeAHtrd66A",8.4,5,6,"1","1","1","2",1,91,"Ide Mania","","2831 N Central","Phoenix","AZ","85004",33.4798,-112.074,4.5,41,1
"512","4fsJNFc_jvch3cot2UguZA",9,6,2,"1","1","0","2",0,3,"Brothers Keeper Tattoo","West View","483 Perry Hwy","Pittsburgh","PA","15229",40.521,-80.0333,4.5,12,1
"513","4g3YEbClAD-6r2ogSctOyg",13,7,2,"1","1","0","4",1,43,"Bodyheat Tanning","Southwest","7910 S Rainbow Blvd., Ste 120, Ste 120","Las Vegas","NV","89139",36.0447,-115.243,3,10,1
"514","4g6ycsPdCIj3m_m_oEF4mQ",8.66666666666667,6,7,"1","0","1","2",1,27,"Creative Hair Skin Nails","","1001 Nevada Way, Ste B","Boulder City","NV","89005",35.9743,-114.844,5,3,1
"515","4gk2BJcYoBtI13u7nW9Ijg",9.66666666666667,6,2,"1","1","0","2",0,59,"Vo's Nails","Southeast","2986 St Rose Pkwy, Ste 160","Henderson","NV","89052",36.0058,-115.118,4.5,51,1
"516","4hMxLXXui5q1N3iYjXqCOA",6.5,4,3,"1","1","1","2",0,1,"Tulia Massage","","1130 Sam Newell Rd, Ste B","Matthews","NC","28105",35.13,-80.7183,5,4,1
"517","4hu_-khyc-DlOIhTMZcN3w",6,7,7,"1","1","0","2",1,305,"Pink Cherry Wax","Southwest","7910 S Rainbow Blvd, Ste 130","Las Vegas","NV","89139",36.0443,-115.243,5,218,1
"518","4iLt4N-_FQdnbadE65cORQ",10.8571428571429,7,4,"0","1","0","2",1,183,"Massage Nirvana Day and Medi Spa","Spring Valley","4555 S Fort Apache Rd, Ste 142","Las Vegas","NV","89147",36.1064,-115.298,4.5,55,1
"519","4ix3hiK-sLVcZhsJbXcw2A",9.57142857142857,7,3,"1","1","0","1",0,3,"Amy Nails & Spa","Northwest","4450 N Tenaya Way, Ste 130","Las Vegas","NV","89129",36.2417,-115.25,4,19,1
"520","4jVI0IZTnX9PH-S8-4e0bw",10,7,4,"1","1","0","2",0,67,"Men's Ultimate Grooming","","9390 West Hanna Dr, Ste B107","Glendale","AZ","85305",33.5349,-112.261,3.5,16,1
"521","4k1TnOZ1pr9F-ITw-hmOmg",8,5,2,"1","1","1","2",2,41,"Eddy's Barbershop","","1797 Coventry Rd","Cleveland Heights","OH","44118",41.5107,-81.5797,5,47,1
"522","4kB418j153zWQRdw1OJU0w",11,7,4,"1","1","1","2",1,24,"Vonn Wynn Hair Studio","","3225 W Ray Rd","Chandler","AZ","85226",33.3194,-111.898,5,14,1
"523","4k_HWGzWdQZtKaxQduAj2A",11.2857142857143,7,2,"1","1","0","2",0,83,"Sally Beauty Supply","","6536 N Decatur Blvd, Ste 110","Las Vegas","NV","89131",36.2789,-115.204,3,11,1
"524","4kbq0sap6jHLHFX8eHlv3A",9.42857142857143,7,6,"1","1","0","2",1,17,"Sapphire Nails and Spa","Spring Valley","6870 S Rainbow Blvd, Ste 105","Las Vegas","NV","89118",36.0645,-115.242,5,9,1
"525","4lvU6TrBGSAvKFkMbQTulg",10.8,5,2,"1","1","1","2",1,136,"Rochelle's Salon & Spa","","4806 N 16th St","Phoenix","AZ","85016",33.5077,-112.048,4.5,34,1
"526","4mzbdWYLH_u26i5x3BP0PA",9.14285714285714,7,6,"1","1","0","2",0,2,"Almonte Salon & Spa","Steele Creek","8943 S Tryon St, Ste E","Charlotte","NC","28273",35.1362,-80.9369,4,8,1
"527","4nM1IDG6JyA0XLovt-_ENw",9,5,7,"1","1","1","2",0,4,"Salon Zoya","","9261 E Via De Ventura, Ste 106B","Scottsdale","AZ","85258",33.553,-111.881,5,5,1
"528","4nb-xlBEkDkH_KsbtqKGwQ",9,6,2,"1","1","1","2",0,3,"TG Hair Salon","Chinatown","3650 S Jones Blvd, Ste 6","Las Vegas","NV","89103",36.123,-115.224,5,3,1
"529","4oMwKEIf8kIthLplwSinKw",6,5,2,"1","1","0","2",0,1,"Indigo Perfumery","","12011 Detroit Ave","Lakewood","OH","44107",41.4839,-81.7728,5,4,1
"530","4oUBoG5Ui48wUSvy2rS4VQ",8,5,2,"0","1","1","2",1,65,"Beyond Beauty Lashes","","2213 N Green Valley Pkwy, Ste 101","Henderson","NV","89014",36.0757,-115.083,3.5,85,1
"531","4oh6nDOMEwQfWrIrIunsBQ",8,5,6,"1","1","0","2",1,98,"The Untouchables Hair Design","Eastside","3500 Paradise Rd, Ste 101","Las Vegas","NV","89169",36.1257,-115.154,4.5,96,1
"532","4p9fBHj75WA9Qr-obi1_FQ",10,7,3,"1","1","0","2",1,107,"Om Ink Gallery","","1805 N 91st Ave, Ste 100","Phoenix","AZ","85037",33.4665,-112.255,5,42,1
"533","4pXXx8w_x8rkR2zMx5ainw",9.16666666666667,6,2,"1","1","0","1",1,21,"The Barber Shop","","16609 N Cave Creek Rd","Phoenix","AZ","85032",33.6372,-112.031,4.5,8,1
"534","4ps8h03Ma6pWNgF1bs5-gQ",10,6,7,"1","1","0","2",1,368,"Elan Nails & Spa","Westside","2101 S Decatur Blvd, Ste 7","Las Vegas","NV","89102",36.1487,-115.21,3.5,170,1
"535","4qAhL4eJN80rE7MDz-zcxw",9.28571428571429,7,3,"0","1","0","2",1,8,"Wexford Nails & Spa","","11967 Perry Hwy","Wexford","PA","15090",40.6307,-80.0575,4,29,1
"536","4qNlVMAFA4NRIp_XIiouqQ",9,6,8,"1","1","1","2",1,1,"face2toe","Westside","4516 W Charleston Blvd","Las Vegas","NV","89102",36.1594,-115.203,5,6,1
"537","4sWZYYJs2Uw2N0qHu1TBsg",10.4285714285714,7,3,"1","1","0","2",1,145,"European Wax Center","","7131 W Ray Rd, Ste 9","Chandler","AZ","85226",33.3182,-111.966,4,42,1
"538","4tjKsIaBXCDUP9PL82Vu_A",9.42857142857143,7,4,"1","1","1","3",1,86,"The Red Door Salon & Spa","","2502 E Camelback Rd, Ste 215","Phoenix","AZ","85016",33.5103,-112.027,4,59,1
"539","4tugxI5cptP1zEDqap7EhQ",13.2857142857143,7,4,"1","1","1","2",0,8,"Massage Envy - Strongsville","","6 Southpark Ctr","Strongsville","OH","44136",41.3096,-81.8207,3,9,1
"540","4uZkUUbl6dr_bjmS2QNnbA",9.28571428571429,7,4,"0","1","0","1",0,24,"Buff N File Nail spa","","1804 E Southern Ave, Ste 7","Tempe","AZ","85282",33.3936,-111.908,5,62,1
"541","4wHiDJ38_zXEqPIAvF32-A",8.83333333333333,6,4,"1","1","1","2",2,10,"Kursten Ann Hair & Makeup","","3014 N Hayden Rd, Ste 122","Scottsdale","AZ","85251",33.4822,-111.909,5,20,1
"542","4wpeWu0lCR_eEdGiyZB9rg",12,5,5,"1","1","1","3",0,14,"Rometrics Salon Spa","","26155 Detroit Rd","Westlake","OH","44145",41.4682,-81.9096,4,17,1
"543","4wvCnjLQT4K7OeZmh9OMfA",9.57142857142857,7,2,"1","1","0","2",1,76,"First Choice Nails","","4658 E Sunset Rd","Henderson","NV","89014",36.0716,-115.072,3.5,43,1
"544","4xfon05LS_K1wLH1ip2rsQ",10.2857142857143,7,3,"1","1","1","2",0,209,"European Wax Center","Centennial","7080 N Durango Dr","Las Vegas","NV","89149",36.2898,-115.286,4.5,67,1
"545","4yLTT6dEfqtAp5cp72PQpQ",9.14285714285714,7,4,"1","1","0","2",1,37,"18|8 Fine Men's Salons - Water Front","","7135 E Camelback Rd, Ste 173","Scottsdale","AZ","85251",33.5018,-111.928,5,42,1
"546","5-os4nHK2yMZwDLeVOEHEg",7.5,6,4,"0","1","1","2",1,31,"Di Luxe Polish Lounge","","4131 N 24th St, Ste A201","Phoenix","AZ","85016",33.4962,-112.03,3.5,26,1
"547","50XY4Y8-XJZrm-FlKQBmZg",8,5,4,"1","1","1","2",1,38,"Metamorphosis Organic Salon, Spa and Wellness Studio","Lawrenceville","5112 Butler St","Pittsburgh","PA","15201",40.4786,-79.9552,4.5,50,1
"548","51PgTc_k6QFbUlywMJx0VA",9.4,5,2,"0","1","1","2",1,28,"I Candy Lash Boutique","Spring Valley","8455 W Flamingo Rd, Ste 4","Las Vegas","NV","89147",36.1144,-115.276,5,25,1
"549","51w4xFMVKcEpPjq_37EOGQ",9.57142857142857,7,2,"1","1","0","2",1,46,"Orchid Nail Spa","Centennial","7501 N Cimarron Rd","Las Vegas","NV","89131",36.2973,-115.27,4.5,51,1
"550","52ZQ9A6PTJKJ5amRJSbEDA",9,5,7,"1","1","1","2",2,10,"Studio Adriana","","4515 N 32nd St, Ste 200","Phoenix","AZ","85018",33.5107,-111.986,5,13,1
"551","54___YbwWeQB2IgUeoHzwA",8.83333333333333,6,2,"0","1","0","2",0,4,"Nail Envy Salon","","7601 Broadview Rd","Seven Hills","OH","44131",41.3588,-81.684,4.5,7,1
"552","54mFqsRyxH-ud7dX1zwejg",12,5,6,"1","1","1","3",0,7,"Van Salon","Sewickley","438 Beaver St","Sewickley","PA","15143",40.5402,-80.1807,2.5,10,1
"553","55CfzEIIFva2f14NJcZxnA",10,5,3,"1","1","0","2",1,31,"Verve Beauty","South End","314 Rensselaer Ave","Charlotte","NC","28203",35.214,-80.8542,4,21,1
"554","55RO-CgxxV7VP1-bXYgJBg",9.42857142857143,7,3,"1","1","0","2",0,29,"Posh Nails & Spa","Ballantyne","14021 Conlan Cir","Charlotte","NC","28277",35.0558,-80.8537,3.5,20,1
"555","55VOvGFNYR0c72iEENfdag",6.66666666666667,6,3,"0","1","1","1",1,2,"Magnificent Hands Center for Healing","Southeast","2055 E Windmill Ln, Ste 155","Las Vegas","NV","89123",36.0421,-115.123,5,4,1
"556","560Kr7O-j4e4ZIRcj3DOmQ",11.6666666666667,6,2,"0","1","0","1",1,50,"Great Clips - Arcadia Crossing","","44th St & Thomas","Phoenix","AZ","85003",33.4797,-111.984,3,18,1
"557","56A9OwSQAyd0c437Af3kWg",9.57142857142857,7,2,"1","1","0","1",1,16,"Barry's Barber Shop","","1535 N Dysart Rd, Ste A-1","Avondale","AZ","85392",33.4621,-112.339,4.5,7,1
"558","56D2GUAp3lesnYcoilPd6w",9.57142857142857,7,2,"1","1","0","1",0,175,"Special Nails","Southwest","8544 Blue Diamond Rd","Las Vegas","NV","89178",36.0216,-115.278,2.5,54,1
"559","56_j_lcGj5X9SpM2KzLm4A",9.57142857142857,7,8,"1","1","0","1",1,1503,"Fabulous Eyebrow Threading","Westside","2960 S Durango Dr, Ste 112","Las Vegas","NV","89117",36.1355,-115.278,5,453,1
"560","56d3dE1LoZZMxA-kTQvqew",9,7,2,"1","1","0","2",1,849,"Studio 21 Tattoo Gallery","","6020 W Flamingo Rd, Ste B-2","Las Vegas","NV","89103",36.1153,-115.224,5,300,1
"561","583u2YN3KLBJyx4R3oFb7A",9.42857142857143,7,2,"1","1","0","2",1,95,"DT Nails","Spring Valley","6415 S Fort Apache Rd, Ste 180","Las Vegas","NV","89148",36.0714,-115.299,3.5,43,1
"562","5842ijShUcmGq4Xb9VUIcQ",10.7142857142857,7,2,"1","1","0","2",1,24,"KLC Nails","","5509 Odana Rd","Madison","WI","53719",43.0499,-89.4743,4,39,1
"563","59KZei-ara5-h85b9r0HDQ",9.42857142857143,7,3,"1","1","0","2",1,71,"Spa & Nail Creations","","1229 E McKellips Rd","Mesa","AZ","85203",33.4511,-111.803,3.5,51,1
"564","59pRENlEtufhZiGbZzdvHg",12.1428571428571,7,3,"0","1","0","2",0,29,"MAC Cosmetics","The Strip","3663 Las Vegas Blvd, Ste 70","Las Vegas","NV","89109",36.1108,-115.171,3.5,24,1
"565","5ADQIpCTW-AmaExI0wxtBA",12.1666666666667,6,4,"1","1","1","3",2,99,"Modern Salon & Spa","South Park","6908 B Phillips Pl Ct","Charlotte","NC","28210",35.1455,-80.825,4.5,49,1
"566","5CTmFgqxx7nl8jzQK2Du-A",8.71428571428571,7,7,"1","1","0","1",1,380,"Fabulous Eyebrow Threading","","6380 N Decatur Blvd, Ste 230","Las Vegas","NV","89130",36.2761,-115.203,5,96,1
"567","5CYCDOboVAI9t1FjfsDcLg",8.66666666666667,6,4,"0","1","1","2",1,14,"Hair Effects Salon","","15850 N 35th Ave, Ste 4","Phoenix","AZ","85053",33.6303,-112.134,5,12,1
"568","5Doi6NrhM37Qkz1QA8Hi9A",7.85714285714286,7,3,"1","1","1","2",1,2,"Divine Soul Tattoo","","2303 N 44th St, Ste 3","Phoenix","AZ","85008",33.4734,-111.986,5,3,1
"569","5DyzL__gK6ZvJZdYjLqfLw",6,6,3,"1","1","1","1",1,21,"Lindsey Benay Studio","","Valencia Salon Studios, 7337 E Shea, Ste 4","Scottsdale","AZ","85260",33.5817,-111.922,5,33,1
"570","5ESYaLIiNczLALzbhxZrHQ",13,7,3,"1","1","0","1",1,62,"Happy Foot Spa","Spring Valley","6085 S Fort Apache Rd, Ste 170","Las Vegas","NV","89148",36.0783,-115.299,4.5,35,1
"571","5Gc9SXFDxYFDsObTD3hFhg",8,5,5,"1","1","1","2",1,29,"Bonnie & Clyde Boutique Salon","","2727 E Mckellips Rd, Ste 112","Mesa","AZ","85213",33.4512,-111.772,4.5,33,1
"572","5Gk8xM6SqEeoNqGYSJXJrA",9.42857142857143,7,4,"1","1","0","2",1,56,"Qv Nails and Spa","","4902 S Val Vista Dr, Ste 103","Gilbert","AZ","85298",33.261,-111.757,3,13,1
"573","5HaQRoeKUZHX1d2WumFTwQ",10.2,5,4,"1","1","0","2",0,5,"Chateau Cheveux","","1275 E Baseline Rd, Ste 112","Gilbert","AZ","85233",33.3784,-111.806,3.5,11,1
"574","5JUH4BIqr04aGC2Z64ArAg",10.2,5,4,"1","1","1","3",1,12,"Hair Doctors Salon","","5475 William Flynn Hwy","Gibsonia","PA","15044",40.6247,-79.9426,5,10,1
"575","5LtZLznMWTNsciWBU3zg2g",11.6666666666667,6,4,"1","1","1","2",1,115,"Studio RAW","","3185 Babcock Blvd","Pittsburgh","PA","15237",40.5242,-80.0156,4.5,77,1
"576","5MgqCkHtkofpY6LsvORIpw",8,5,4,"1","1","0","2",0,14,"Eddys Barbershop","Edgewater","11629 Clifton Blvd","Cleveland","OH","44102",41.4874,-81.7682,4.5,8,1
"577","5NbPSWDtvudODCP7tPPpEw",13.1428571428571,7,4,"1","1","1","2",1,43,"Massage Envy - Myers Park","Cotswold","2907 Providence Rd","Charlotte","NC","28211",35.1714,-80.8075,3,13,1
"578","5NyAYogQEmUqz7ayXfN6NQ",9.5,6,4,"1","1","1","2",0,10,"Symmetry Medical Spa","Eastside","4275 Burnham Ave, Ste 127","Las Vegas","NV","89119",36.1117,-115.125,4,10,1
"579","5OEentyLv-mj46tkOscEgw",7.8,5,6,"1","1","1","2",1,5,"Ambia at Off the Avenue Salon","","1859 W Guadalupe Rd, Ste 102, Avenue Salon","Mesa","AZ","85202",33.3635,-111.874,5,3,1
"580","5OLtY1-xR6LjeH3kJGJ5UA",9.57142857142857,7,2,"1","1","0","1",1,3,"Scentz N Sudz","Sunrise","3935 E Charleston Blvd, Ste B3-B4","Las Vegas","NV","89104",36.1581,-115.09,4.5,3,1
"581","5PX6Ekno5-LBmQA2bA_wuQ",6,5,5,"1","1","1","2",1,9,"New Life New Image Medical Spa","Spring Valley","8867 W Flamingo Rd, Ste 101","Las Vegas","NV","89147",36.1138,-115.285,4.5,29,1
"582","5PorhfecCrCJgdPyhSTLsA",8,5,4,"0","0","1","2",1,14,"Seriously Skin","","154 Bell St","Chagrin Falls","OH","44022",41.432,-81.3865,3.5,7,1
"583","5QrZQ6vqQHNdOB8vDu0f0A",8.8,5,4,"1","1","1","2",0,3,"Devina's Hair Boutique","","10201 N Scottsdale Rd, Ste 26","Paradise Valley","AZ","85253",33.5786,-111.926,5,11,1
"584","5QurLsPEMEkUGoNlKHyINQ",8.57142857142857,7,4,"1","1","0","2",1,112,"20 Lounge","","7001 N Scottsdale Rd, Ste 166, Seville Plaza","Scottsdale","AZ","85253",33.5398,-111.924,3,81,1
"585","5RWD1e2lndLAUHjySm2mqQ",10.4285714285714,7,5,"1","1","0","1",0,48,"Supercuts","Anthem","10345 S Eastern Ave Ste 140, Eastern Commons","Henderson","NV","89052",36.0011,-115.11,3.5,20,1
"586","5Rduolg9SjUpg39hTm9M6g",11.1428571428571,7,5,"1","1","0","1",0,7,"Supercuts","","4980 S Power Rd Ste 105, Gilbert Gateway Town Center","Mesa","AZ","85212",33.3257,-111.689,2.5,11,1
