"","business_id","avg_worktime","workday","numbers_category","name","neighborhood","address","city","state","postal_code","latitude","longitude","stars","review_count","is_open"
"1","--j-kaNMCo1-DYzddCsA5Q",10,6,6,"Q's Nails","Eastland","3039 S Blvd, Ste C","Charlotte","NC","28209",35.2739,-80.7293,7,0.3,1
"2","--sdH6tFAdEs7j4Msr7nPA",7.57142857142857,7,3,"The Fragrance Shop","","16836 Birkdale Commons Pkwy, Ste D","Huntersville","NC","28078",35.4452,-80.8803,10,0.3,1
"3","-0GU6ghA7z4-xotUZfXl1w",10.1428571428571,7,2,"Sport Clips Haircuts - Chandler","","800 N 54th St","Chandler","AZ","85226",33.3157,-111.969,10,0.7,1
"4","-1BPe8UjF2_l3nVk-DFUjA",8.28571428571429,7,2,"Journey Massage Therapy","","","Scottsdale","AZ","85259",33.591,-111.797,10,0.4,1
"5","-1PwcnMwaztBRKah7lrWBg",10.4285714285714,7,4,"Ulta Beauty","","301 South Hills Village","Pittsburgh","PA","15241",40.3426,-80.0562,8,0.7,1
"6","-2Mwx1Mp10HTLlazfCBKdA",9.28571428571429,7,5,"Nail Secrets","","2412 Ferguson Rd","Hampton Township","PA","15101",40.555,-79.9721,8,1.2,1
"7","-2wfiUn6AZm2KO0FJYakVQ",10.6666666666667,6,4,"Men's Ultimate Grooming","","734 N Mcqueen Rd, Ste 103","Gilbert","AZ","85233",33.3635,-111.825,8,2.4,1
"8","-37_L44VjFw1U4tBfBDHRw",12,7,2,"Cloud Nine Wellness Spa","","3301 N Miller Rd, Ste 5","Scottsdale","AZ","85251",33.4864,-111.917,4,0.5,1
"9","-38Kck4mGlkBwd6OXayZRg",12,7,2,"Now and Zen Massage Therapy","","7455 W Washington Ave, Ste 210","Las Vegas","NV","89128",36.1791,-115.256,10,3.2,1
"10","-4cA4Kt0UKzGYimrZsYuQg",9.28571428571429,7,2,"Nails Up Spa - Highland Creek","","13024 Eastfield Rd","Huntersville","NC","28078",35.3839,-80.7861,5,1.2,1
"11","-4dzsToZl39O95C5KWbJbg",9,5,2,"Kind Family Dentistry","","7000 E Shea Blvd, Ste 1510","Scottsdale","AZ","85254",33.5831,-111.929,8,0.7,1
"12","-5CXrj2zoTVcZG9NdCtJaw",9.6,5,2,"Barber Shop Styles","","4114 Saw Mill Run Blvd","Pittsburgh","PA","15227",40.3668,-79.9843,10,0.5,1
"13","-5FndHRwNg-xhPsctrhTbA",9.28571428571429,7,2,"NOA Nail Spa","","9900 Poplar Tent Rd, Ste 110","Concord","NC","28027",35.419,-80.7427,6,0.8,1
"14","-5MrVsxY-9Z0ykQueccwFg",9.57142857142857,7,3,"Tatum Ranch Barbershop","","29850 N Tatum Blvd, Ste 104","Cave Creek","AZ","85331",33.756,-111.993,9,2,1
"15","-5UH4lDjDzed89E8HwnGfw",9,5,4,"Beauty By April Russell","","7155 W Campo Bello, Bldg A, Ste 19a","Glendale","AZ","85308",33.6418,-112.214,10,0.3,1
"16","-649HdHuChGUfmUc-JcGpA",8,6,2,"Shafa Medical Clinic","","202 E Earll Dr, Ste 150","Phoenix","AZ","85012",33.4842,-112.071,3,0.4,1
"17","-6AFQalhxzBHv6flajuo_w",10,6,4,"Best Beauty Salon","Westside","3620 W Sahara Ave","Las Vegas","NV","89102",36.1457,-115.19,7,1.7,1
"18","-6g2TeogX9CCeJfU7nNKWQ",9.57142857142857,7,6,"Estilo 5","","4585 W, Fl amingo","Las Vegas","NV","89147",36.1154,-115.217,10,0.6,1
"19","-6pbHNi0J3m2PiXhldxtLA",9.6,5,2,"David Gerard Salon","","13025 W Rancho Santa Fe Blvd","Avondale","AZ","85392",33.4617,-112.336,9,2.1,1
"20","-6wyNW0SzFjVNlDtzTD3Ow",5.14285714285714,7,5,"GingerHoney Skin Care","","2200 W Bethany Home Rd, Ste 4B","Phoenix","AZ","85015",33.5243,-112.107,10,0.5,1
"21","-82Z0wTA-nOCLUVD4XXIBA",9.57142857142857,7,2,"Liberty Nails","","710 W Elliot Rd, Ste 105","Tempe","AZ","85284",33.3495,-111.949,6,2.9,1
"22","-8SG5t1yznyU0fy6_CWNDA",10,6,2,"Juno Hair","","616 E Green St, Ste C","Champaign","IL","61820",40.1102,-88.2291,6,1.5,1
"23","-8bGynxpc8t4-vhOy6FxTg",4.5,4,2,"Therapeutic Sole","","7704 E Doubletree Ranch Rd, Ste 301","Scottsdale","AZ","85258",33.5652,-111.915,10,0.4,1
"24","-8wkc-r4A1NVlGOIQOAvxQ",10,1,2,"Pro Nails Spa","","200 Dobys Bridge Rd, Ste 156","Fort Mill","SC","29715",35.0066,-80.9354,4,0.4,1
"25","-AYIgCzZPVr7OMcfELjcAg",7.16666666666667,6,2,"King's Barber Shop","","104 S McCullough St","Urbana","IL","61801",40.112,-88.2129,9,1.1,1
"26","-AeZXaqxrLxxXEVH9KmK-g",9.28571428571429,7,2,"PQ Nails & Spa","","43 S Stephanie St, Ste 130","Henderson","NV","89012",36.0275,-115.049,8,4.2,1
"27","-Ao1BuPOWM-Eb6F_M27fNQ",9,5,3,"Advanced Medical Hair Institute","Spring Valley","8945 W Russell Rd, Ste 320","Las Vegas","NV","89148",36.0842,-115.287,10,0.3,1
"28","-B2WY_he81rS3Lnl0IWvPA",10.6666666666667,6,2,"Megan Daugherty At Sachi Salon and Spa","","4821 N Scottsdale Rd, Ste 105, Sachi Salon & Spa","Scottsdale","AZ","85251",33.5066,-111.926,10,0.3,1
"29","-BS5c6tvU9gc3JAwopiXtA",10,7,8,"Beauty in Vegas","","","Las Vegas","NV","89101",36.1697,-115.124,7,1.4,1
"30","-BddEiLOykIwvIafAVGFnQ",9,5,2,"Lash Dolls LV","Southwest","7355 S Buffalo Dr, Ste 5","Las Vegas","NV","88113",36.0559,-115.281,10,0.5,1
"31","-C-54zFXI_ZKf1pI5pBbxw",8.4,5,3,"Barber Shoppe","","11827 N Saguaro Blvd","Fountain Hills","AZ","85268",33.5945,-111.712,10,0.5,1
"32","-CC1wZQ19hO3ol2JDeGA3w",9.6,5,2,"Delectable Hair Designs by Marcella","Northwest","3211 N Tenaya Way, Ste 110, Blend Salon And Spa","Las Vegas","NV","89129",36.2198,-115.252,10,1.9,1
"33","-DQVeF8QYXGL4o5FJcLMsg",8.42857142857143,7,4,"Fancy Nail Salon","","7677 Saltsburg Rd","Pittsburgh","PA","15239",40.4755,-79.7733,7,0.3,1
"34","-DgLrAuOKilHSeH8gFheEw",9.5,6,4,"Lora Moon Styling","","10401 E McDowell Mtn Ranch Rd, Ste 140","Scottsdale","AZ","85255",33.6282,-111.855,10,7.9,1
"35","-DzExXZ1QrBkCU-NWJasVA",8.57142857142857,7,2,"Belky's Beauty Salon","Starmount","1341 Sharon Rd W","Charlotte","NC","28210",35.1195,-80.8798,8,0.8,1
"36","-E4-EuyTr1G5Y_klky8cZQ",7.8,5,3,"Abby Milord Skin Care","","6318 S Higley Rd","Gilbert","AZ","85298",33.2352,-111.723,9,0.3,1
"37","-EWJNNVi_3xHjwPfgYDvGg",8,6,2,"Bijin Aesthetics","Westside","2001 S Rainbow Blvd, Ste 100","Las Vegas","NV","89146",36.1492,-115.244,10,0.3,1
"38","-EX863eYHS-cutthfYhG7A",10.5,6,2,"Studio Booth","East Liberty","6343 Penn Ave","Pittsburgh","PA","15206",40.4592,-79.9193,8,4,1
"39","-EmzCq1b_diV2e8HJilTlQ",10.6666666666667,6,3,"J Anthony Salon & Spa","","20811 N Cave Creek Rd","Phoenix","AZ","85024",33.6752,-112.03,10,6,1
"40","-FRzFwd76Et2mr0wkpngEA",10.1428571428571,7,2,"Arizona Hair Co","","3941 E Chandler Blvd, Ste 104","Phoenix","AZ","85048",33.3038,-111.998,4,0.9,1
"41","-FZxMD-3aXsy9BI1liKqCg",9.42857142857143,7,2,"Vip Nails & Spa","Burr Oaks","2308 S Park St","Madison","WI","53713",43.0411,-89.3941,6,0.7,1
"42","-F_NSIK1YuRulVV7IlbeuQ",9,5,2,"Hair Duz It","","1140 N Higley Rd, Ste 101","Mesa","AZ","85205",33.4366,-111.721,10,0.4,1
"43","-IIIN92a3NMtbpaRsL0Saw",8.85714285714286,7,2,"Bethel Park Chiropractic","","5727 Library Rd","Bethel Park","PA","15102",40.3135,-80.0306,8,0.3,1
"44","-I_ZiWYitmgycPdjMsuUcg",7,4,3,"Village Salon","Anthem","10905 S Eastern Ave, Ste 104","Henderson","NV","89052",35.9943,-115.102,10,1.2,1
"45","-J3_fJ9_p_12aVYA4sSBIA",11,7,2,"Revival Hair Lounge","Ballantyne","12335 N Community House Rd, Ste D-9","Charlotte","NC","28277",35.0698,-80.8423,10,0.7,1
"46","-JuHqV9ZIfc0U5JVsicYDw",14.7142857142857,7,2,"Walgreens","","1142 W Guadalupe Rd","Mesa","AZ","85210",33.3648,-111.858,6,0.5,1
"47","-KO6zDZn1t3vLl0xY21aug",9.71428571428571,7,3,"Fantastic Sams","Southwest","8020 S Rainbow Blvd, Ste 105","Las Vegas","NV","89139",36.0431,-115.242,8,4,1
"48","-LALjqpjMrdq4GYEXXPrTg",8,5,2,"Amazing Smile Dentistry","Spring Valley","6252 S Rainbow Blvd, Ste 130","Las Vegas","NV","89118",36.0748,-115.242,9,2,1
"49","-LeLsUam5SDgDK1Y7CPWsw",7.4,5,4,"A Little Off","Spring Valley","9340 W Tropicana Ave, Ste 18","Las Vegas","NV","89147",36.1015,-115.296,10,0.6,1
"50","-Mfl5hIEqbI37cgGVPlRrg",10.6666666666667,6,2,"Danny's Barber Shop","","2637 W Bethany Home Rd","Phoenix","AZ","85073",33.524,-112.116,8,1.3,1
"51","-NVarOq5E4htuA3Q3OEUnw",9.42857142857143,7,2,"Royal Nails And Spa","Northwest","3350 Novat St","Las Vegas","NV","89129",36.221,-115.329,8,5,1
"52","-Nau05o3mhq_U4_VR21l7Q",10,3,2,"Health Synergy Acupuncture & Chinese Medicine","","4515 S McClintock Rd, Ste 113-114","Tempe","AZ","85282",33.3849,-111.908,10,0.4,1
"53","-PDsq1KOhR-C21u0kCRpqQ",10.6,5,5,"Asalon","Arboretum","8140 Providence Rd, Ste 600, The Arboretum Shopping Center","Charlotte","NC","28277",35.0965,-80.7785,10,0.4,1
"54","-PL_zYYNagqNZe2qA-4xCA",12,6,5,"Euphoria Institute of Beauty Arts and Sciences","Westside","9340 W Sahara Ave, Ste 205","Las Vegas","NV","89117",36.1475,-115.299,6,2.8,1
"55","-PnZ5_XurjYgoqIKd3p1RA",11.2857142857143,7,2,"Carribean Cowboy","","6031 Royalton Rd","North Royalton","OH","44133",41.3133,-81.7273,5,1.9,1
"56","-PtTGvWsckUL8tTutHr6Ew",8.42857142857143,7,2,"Snip-its Rocky River","","21609 Center Ridge Rd","Rocky River","OH","44116",41.4595,-81.8587,5,1.8,1
"57","-QA_nOdfBoMD-AXeeew3dQ",11,7,2,"Great Clips","","835 W Warner Rd, Ste 114","Gilbert","AZ","85233",33.334,-111.808,2,0.3,1
"58","-QK041S1Clr0N4m3adwRpA",9,6,4,"Hottie Hair Salon & Extensions Store","Westside","7871 W Charleston Blvd, Ste 130","Las Vegas","NV","89117",36.1587,-115.263,8,10,1
"59","-RBS7znoOzfB8siQPc1_Nw",8.4,5,2,"Salon E and Boutique","","6501 E Greenway Pkwy, Ste 156","Scottsdale","AZ","85254",33.6252,-111.94,9,1.6,1
"60","-RmXB5nIycequPUB6kxdGg",12,7,2,"On The Run Massage","","","Phoenix","AZ","85014",33.5083,-112.057,10,1,1
"61","-SJBKfo4OpWhbEqvMpN_nA",8.33333333333333,6,6,"Beyond Beauty Skincare","","1631 E Guadalupe Rd, Ste 106","Tempe","AZ","85283",33.3633,-111.914,10,0.8,1
"62","-SNEYS8erOwt9SkPFO3sTA",7.57142857142857,7,2,"Urban Kutz Barbershop","Old Brooklyn","4491 Pearl Rd","Cleveland","OH","44109",41.4335,-81.7111,10,1,1
"63","-TDpOXZxtxpJ8kt0Ea4VZQ",9.42857142857143,7,2,"LA Nails & Spa","Anthem","10050 S Eastern Ave, Ste 140","Henderson","NV","89052",36.0066,-115.112,6,0.3,1
"64","-UFf6RHGrzT5kLA33buMYg",8,5,2,"Colossus Tattoo","","225 W University, Ste 110","Tempe","AZ","85281",33.4217,-111.943,10,0.5,1
"65","-UOQApkujaofcnGGoZnMXw",8.6,5,4,"Dollface Skin & Makeup Lounge","","19428 Zion Ave","Cornelius","NC","28031",35.4751,-80.8532,8,0.4,1
"66","-UQE0keLbAUuaaw1twT6zg",11.7142857142857,7,2,"Zoë Massage & Bodywork","","4728 Park Rd, Ste D","Charlotte","NC","28209",35.1655,-80.8513,10,1.6,1
"67","-VYeIQ3ssYWhs0TGpmUtXg",12,6,2,"Firehouse Tattoo","","364 E Main St","Stoughton","WI","53589",42.917,-89.2171,9,0.3,1
"68","-VcT4wkfyiYEX3XZR51Apw",13.4285714285714,7,2,"Palm Beach Tan","","2558 Wigwam, Ste C","Henderson","NV","89074",36.0361,-115.098,5,2.6,1
"69","-VnsYKUddm8eUr4k_bYf0g",9.42857142857143,7,2,"In 2 Nails","","9526 Birkdale Crossing Dr, Ste 22","Huntersville","NC","28078",35.4435,-80.8863,6,2.7,1
"70","-XKf6zmskFBPm_ClDl8qgQ",10,5,5,"Signature Style Hair Studio","","20035 Jetton Rd, Ste C","Cornelius","NC","28031",35.4808,-80.8835,10,0.4,1
"71","-XLjdLpTLJ672EMN5Dfrhg",9,6,2,"Hakuna Matata Nails and Spa","","15414 N 99th Ave","Sun City","AZ","85351",33.6223,-112.269,9,0.6,1
"72","-Xaq2Fra0d-wHPnGZUfCEQ",9.42857142857143,7,2,"Bamboo Nails","","4645 E Chandler Blvd, Ste 108","Phoenix","AZ","85048",33.3046,-111.982,7,5.9,1
"73","-XpYtY5L0Q274ImwonBY-w",11.1428571428571,7,2,"Palm Beach Tan","","14181 Pearl Road","Strongsville","OH","44136",41.3113,-81.8342,3,0.3,1
"74","-ZNTxbUVRg25LhOxEuW4rQ",10.2857142857143,7,8,"My Pedi Nails & Spa","Spring Valley","5060 S Fort Apache Rd, Ste 160","Las Vegas","NV","89148",36.0967,-115.297,8,26.7,1
"75","-Z_-e5aK6MdL7_CzM9bKPA",8.2,5,3,"Jess Morrison","East Liberty","5921 Baum Blvd, Ste 5b","Pittsburgh","PA","15206",40.4605,-79.9272,10,0.4,1
"76","-Zph5iyNiWdkkq_dLrOC_Q",9.42857142857143,7,2,"Boutique Nails & Spa","","3790 W Pinnacle Peak Rd","Glendale","AZ","85310",33.6983,-112.142,7,2,1
"77","-aIuYy5kZ4YkjzkWUZxrPg",9.33333333333333,6,5,"Family Nails","","8115 N 19th Ave, Ste 103","Phoenix","AZ","85021",33.5551,-112.099,5,0.5,1
"78","-aqGZ9GtdAjOSVjPL470vg",7.33333333333333,6,3,"BB Hairrington's Hair and Nail Salon","","3029 N Alma School Rd, Ste 104","Chandler","AZ","85224",33.3512,-111.857,9,1.4,1
"79","-b9YQ8TqHOAVNbPkN2YScg",8.83333333333333,6,3,"Laser Med Solutions","","7373 N Scottsdale Rd, Ste C228","Scottsdale","AZ","85253",33.5449,-111.925,4,1.2,1
"80","-bBaDCDIRoS5VTzUbALyBQ",7.8,5,4,"Poza Salon","Elizabeth","2314 Crescent Ave","Charlotte","NC","28207",35.2041,-80.8238,8,1.4,1
"81","-bUNDUWf5VuMPlZ_MrhRAQ",9.66666666666667,6,4,"Salon Esprit","","6615 W Happy Valley Rd, Ste B108","Glendale","AZ","85310",33.7108,-112.2,9,3.2,1
"82","-boNHP3clSwzToiLWQrBUQ",11.4285714285714,7,5,"Supercuts","Westside","9811 W Charleston Blvd Ste 3, Hualapai Commons","Las Vegas","NV","89117",36.1579,-115.312,7,1.4,1
"83","-cgOvAOO_XcPlRXjNr_Ydg",9.83333333333333,6,2,"Luxury Nail& Spa","","115 Calvin St","Savoy","IL","61874",40.0589,-88.2533,8,0.8,1
"84","-eUE2fJqru1MssR1vla7Gw",10,6,5,"Barefoot Nail Bar","","2326 Matthews Township Pkwy, Ste B","Matthews","NC","28105",35.1267,-80.7002,9,1.4,1
"85","-fMdqIROzS2V3t5QQPj5-g",9.42857142857143,7,2,"Davi Nails 1533","","7975 W Peoria Ave","Peoria","AZ","85345",33.5786,-112.23,9,0.5,1
"86","-gRDDhLdkAfki50Dt5P9Og",6,5,6,"Waxetera","","3514 N Power Rd","Mesa","AZ","85215",33.4802,-111.685,10,3,1
"87","-h6bRTwHPOMi_JHE-8sBpg",9.83333333333333,6,2,"Rick's Barber Shop","","352 Freeport Rd","Pittsburgh","PA","15238",40.4939,-79.8605,8,0.5,1
"88","-hG-lGm4DjnPAP8_8ZB_OA",10.5714285714286,7,2,"SmartStyle","","5605 W Northern Ave","Glendale","AZ","85301",33.5515,-112.179,5,0.3,1
"89","-hGjrHwQrdsZvEcHaJSFGA",8,6,4,"Her Imports","Fourth Ward","401 N Tryon St, Ste 1117","Charlotte","NC","28202",35.2302,-80.8396,7,0.4,1
"90","-iFhZO-MC-txKps1n0AxSw",12,7,2,"Studio Baby Salon","","3936 E Chandler Blvd, Ste 216","Phoenix","AZ","85044",33.3069,-111.999,10,1,1
"91","-lmarmK7dC5Ukxg1rzvJDg",10.7142857142857,7,3,"Kneading Feet Reflexology","","2051 W Warner Rd, Ste 16","Chandler","AZ","85224",33.334,-111.878,9,6.1,1
"92","-m9hL-qdFZ1o3hycETrizA",10.4285714285714,7,4,"Henna Shoppe","","7014 E Camelback Rd, Ste 2080","Scottsdale","AZ","85251",33.5028,-111.929,10,6.7,1
"93","-mD2rxd7-poEu9Pvr7K4ow",9,5,2,"Charlotte Ophthalmology Clinic, PA","Cotswold","4335 Colwick Rd","Charlotte","NC","28211",35.1776,-80.7977,4,0.3,1
"94","-ml57G52t4mQpYRHe54HWQ",9.57142857142857,7,2,"New Horizon Nails & Spa","Anthem","10624 S Eastern Ave, Ste F","Henderson","NV","89052",35.9984,-115.102,8,8.2,1
"95","-n2Cnpa4uF2RrK_gyvH9_Q",7,5,3,"Larry C Leverett, MD FACS","","4530 E Ray Rd, Ste 140","Phoenix","AZ","85044",33.3211,-111.986,9,1.4,1
"96","-o4egjmZHyJM-9-z7Io7qw",7.75,4,2,"A-Maise-ing Images","","6601 Old Monroe Rd, Ste 24","Indian Trail","NC","28079",35.0486,-80.6473,10,0.7,1
"97","-o8mu9TTwZIgg9kk8m6N8g",7.8,5,2,"Cornerstone Wellness Center","","7227 E Baseline Rd, Ste 106","Mesa","AZ","85209",33.3788,-111.678,10,1,1
"98","-oHzyChCB65UtErig2nvhg",8.57142857142857,7,3,"Sparkle Nails Couture","Summerlin","10300 W Charleston Blvd","Las Vegas","NV","89135",36.1606,-115.321,10,0.3,1
"99","-oeisdVp-AL4-gg7jJfS0Q",9,5,3,"MaxHealth Center","Southeast","8475 S Eastern Ave, Ste 101","Las Vegas","NV","89123",36.0355,-115.119,9,4.3,1
"100","-oiZGU0Ox5Vbvt5BXBs7ag",7,7,2,"Walgreens","Capitol","311 East Campus Mall","Madison","WI","53715",43.0724,-89.3985,8,0.4,1
"101","-pAYb8RwndCT1P8Kyufh4Q",9.14285714285714,7,2,"Peak Nail Spa","","855 W University Dr","Mesa","AZ","85201",33.4218,-111.85,6,1.1,1
"102","-pXYaaBDOPSdaNXwdy7mAA",8.66666666666667,6,4,"Repose Salon And Spa","","11 W Washington St, Ste 240","Phoenix","AZ","85003",33.448,-112.074,9,4.4,1
"103","-ppGmgqTSXJBZ6jkJamEGA",7.66666666666667,6,3,"Ambiance Hair Salon","Sherwood Forest","4219 Providence Rd, Ste 1A","Charlotte","NC","28211",35.1569,-80.7945,8,0.4,1
"104","-psqnDV1QpfKnodtEgCbTg",11.4,5,2,"American Nightmare Tattoo","","2123 Western Ave","Las Vegas","NV","89102",36.1473,-115.165,5,0.5,1
"105","-q-1qhijCAerHdAHrbsH4A",7.75,4,4,"The Colour Room","","1712 E Guadalupe Rd","Tempe","AZ","85283",33.3642,-111.912,8,0.5,1
"106","-qgong2LP7HvL9hF_GRdZA",10,7,4,"Cost Cutters","Stone Meadows","6615 Mckee Rd","Madison","WI","53719",43.0148,-89.4983,6,0.6,1
"107","-s73VTMP33ld4P0TzvdVwg",7.6,5,2,"Alder Street Barber","Shadyside","5987 Alder St","Pittsburgh","PA","15232",40.4575,-79.9256,9,5.8,1
"108","-tQoiOn-AFdhAdPID-sG-A",13.1428571428571,7,4,"Massage Envy - Mesa","","6626 E Mckellips Rd","Mesa","AZ","85215",33.452,-111.688,6,2.4,1
"109","-u-WFAt0Kawd2rKiB4bhIw",7.83333333333333,6,3,"Wax Hair Removal Bar","","2895 N Green Valley Pkwy, Ste E","Henderson","NV","89014",36.074,-115.083,9,2,1
"110","-u0dtJz6sBkhgLhAIBY_1A",9.14285714285714,7,2,"Polished Nail Bar","Elizabeth","605 Providence Rd","Charlotte","NC","28207",35.2017,-80.8246,5,5.2,1
"111","-uR6opiYA8zg-S3O_3IlMA",9.2,5,3,"Fancy That Salon","","1714 W Guadalupe Rd, Ste 115","Gilbert","AZ","85233",33.3653,-111.827,10,1.6,1
"112","-ub4sJzrd7v3NW72qY1pmQ",10.1666666666667,6,2,"Planet 21","South End","325 Arlington Ave, Ste 140","Charlotte","NC","28203",35.2168,-80.8521,10,0.3,1
"113","-v2ZMJ9lN1gJ3wqzMRbTOA",8,5,3,"Paul Angelchik, M.D","","18275 North 59th Ave, Ste 170","Glendale","AZ","85308",33.651,-112.186,9,1.4,1
"114","-vipEI-vd-nanYInX-CQCQ",9.83333333333333,6,4,"Modern Love Salon & Medspa","","7025 E 5th Ave","Scottsdale","AZ","85251",33.4972,-111.93,10,1.8,1
"115","-wZT6qfIlcVNfw-Vvxcreg",9.42857142857143,7,2,"Luxury Nails By Safeway","","14692 N Frank Lloyd Wright Blvd","Scottsdale","AZ","85260",33.6192,-111.876,8,2.1,1
"116","-wuTt61JudBhiicEkG5kHg",8.71428571428571,7,3,"Sinful Skin Tattoo Studio","","8110 W Union Hills Dr, Ste 240","Glendale","AZ","85308",33.6532,-112.234,10,5.2,1
"117","-xE5YeJz6xJ6BhUs8n3V3Q",12,6,2,"Go Float Yourself","","4500 E Sunset Rd, Ste 4","Henderson","NV","89014",36.072,-115.076,8,2.2,1
"118","-xF6kuyzpR7hohRLRrvRDA",8,6,4,"Amour Nails And Spa","","10500 East Jomax Rd","Scottsdale","AZ","85262",33.7272,-111.852,8,0.3,1
"119","-xabNZkJ14JlFA-LP2jzYA",5.83333333333333,6,2,"Randall's Massage & Body Holistic Wellness","","5150 N 16th St","Phoenix","AZ","85016",33.5122,-112.048,10,1.8,1
"120","-xgMcbMdNHM-Lzj2X-Aw6w",9.28571428571429,7,6,"Seva","","5010 N 95th Ave","Glendale","AZ","85305",33.5101,-112.267,8,0.6,1
"121","-yuNBcDIoOzCcS4GWU_o1A",6.6,5,3,"The Gilded Girl","Lawrenceville","5104 Butler St","Pittsburgh","PA","15201",40.4784,-79.9553,10,0.7,1
"122","-ywVyrxrtdngaNcVFKoaQQ",11,5,3,"Paul Mitchell the School Cleveland","","10735 Ravenna Rd","Twinsburg","OH","44087",41.3307,-81.4631,5,0.3,1
"123","-zbMk-gkFcv91Ar0AESkkg",12,7,2,"Instant-Glow Mobile Spray Tanning","","","Litchfield Park","AZ","85340",33.4934,-112.358,10,0.3,1
"124","0-GxJX2Qy1o1oz-BpocbJg",8,6,7,"Madison Skin Specialists","","6314 Odana Rd, Ste 20","Madison","WI","53719",43.0544,-89.4887,10,0.3,1
"125","0-s9STDx--5khcgQy4vyow",10.4285714285714,7,3,"Enlightened Soul Tattoo & Piercing","","1300 W Sunset Rd, Ste 2501","Henderson","NV","89014",36.0669,-115.041,10,2,1
"126","0010xnFOCyJZeMAuTtiv5w",8,7,4,"Henna Shoppe","","7235 E 1st Ave","Scottsdale","AZ","85251",33.494,-111.925,10,4.5,1
"127","002ISUJGzG_5ejVrIqsPFA",7.6,5,10,"Salon Atmosphere","Dormont","3000 W Liberty Ave","Pittsburgh","PA","15216",40.3932,-80.0369,9,1,1
"128","00PrHGOqhojVM8xwByjSfw",10.1428571428571,7,5,"Urban Wax Scottsdale Waxing Studio","","6501 E Greenway Pkwy, Ste 153","Scottsdale","AZ","85254",33.625,-111.942,9,1.6,1
"129","00XfKQ16CTyzHSqYKNtpMw",11.6666666666667,6,2,"Gela Style LV","Westside","1225 S Ft Apache Rd","Las Vegas","NV","89117",36.1569,-115.292,10,0.4,1
"130","00lLqbShBN9oScKCXBn8mw",9.6,5,4,"Antoine's Le Jour Spa & Salon","","500 E Royalton Rd, Ste 120","Broadview Heights","OH","44147",41.3134,-81.6822,7,0.7,1
"131","00s_uNFN9uM2AW3bZZ8zrQ",9.85714285714286,7,4,"Nature's Spa and Wellness","","6311 Carmel Rd, Ste B","Charlotte","NC","28226",35.0915,-80.8436,9,5.6,1
"132","011wdTEO-W8cAe31rTn-Kg",9.28571428571429,7,2,"Sports Clips","","2189 Deming Way","Middleton","WI","53562",43.0983,-89.5221,5,0.5,1
"133","02eH78Tc5Cxxy-CIqhzx-A",9.57142857142857,7,4,"Vanity Nails & Spa","Southeast","7620 S Las Vegas Blvd, Ste 120","Las Vegas","NV","89123",36.0512,-115.171,7,14.8,1
"134","03SYJLErY8XpNfY-qiDZcw",8,5,4,"Chateau D'tour Salon","","4727 E Cactus Rd, Ste 16","Phoenix","AZ","85032",33.5963,-111.98,9,1.2,1
"135","05OUuoInL-o8Ed-7z_cIUg",5.42857142857143,7,2,"Yaya Life","University","4632 S Maryland Pkwy, Ste 16","Las Vegas","NV","89119",36.105,-115.136,9,2,1
"136","05qUHkx1cOv9i8GFLhZqoQ",7.66666666666667,6,6,"Paris Laser and Cosmetic Tattoo","Spring Valley","5135 S Durango Dr, Ste 104","Las Vegas","NV","89113",36.0956,-115.28,10,1.5,1
"137","07MpHT8TrGDI_UVktfKMPA",10,7,4,"The Salon At Red Rock","South Summerlin","11011 W Charleston Blvd","Las Vegas","NV","89135",36.1564,-115.334,7,0.3,1
"138","07nPF_eLxc_tYSto8Ag1mQ",9.8,5,5,"3D MicroworksLV","The Lakes","8645 W Sahara Ave","Las Vegas","NV","89117",36.143,-115.28,10,0.4,1
"139","07zdbswvu8pyckyPv2HCyQ",9,6,5,"Nails-N-Spa","","4532 E Lone Mountain Rd","Cave Creek","AZ","85331",33.7706,-111.984,10,0.6,1
"140","08AcSSFNcba9HA_-RYljkQ",11.2857142857143,7,2,"EDGE Fitness 24/7 & Tanning","Chinatown","3645 S Rainbow Blvd","Las Vegas","NV","89103",36.1232,-115.243,5,2.8,1
"141","09AF8rnsPfKaEr2MH5wjBw",8,5,3,"The Roose Parlour and Spa","","2234 N 7th St","Phoenix","AZ","85006",33.4726,-112.066,10,4.6,1
"142","09vrTfe6Od9MorfsRorS6g",9.83333333333333,6,2,"Emporium","Spring Valley","5455 S Fort Apache Rd, Ste 104","Las Vegas","NV","89148",36.0896,-115.297,8,3.8,1
"143","0AXVjRyG1SqdF7eGcUJAmw",9,4,5,"Martika Campbell","","1530 S Val Vista Dr, Ste 101, White Lotus Salon And Spa","Gilbert","AZ","85296",33.3224,-111.756,10,0.4,1
"144","0AeG4Um6PMMIMSiiVbvXXA",10.2857142857143,7,2,"Zen Massage","","9826 Gilead Rd, Ste C-103","Huntersville","NC","28078",35.4063,-80.8644,7,2.4,1
"145","0B9znrfIopFrzOIW_MM_Qg",6.33333333333333,6,4,"NAKED Skinn Studio","","601 Whitney Ranch, Ste D21","Henderson","NV","89014",36.0642,-115.054,10,4.5,1
"146","0BOdyChBbhGjQXRWZtDscQ",12.1428571428571,7,3,"The Art of Shaving","The Strip","3377 Las Vegas Blvd, Ste 2380","Las Vegas","NV","89109",36.1227,-115.169,9,3,1
"147","0DDCXrCxGW1PU1qE1vTcZA",8.42857142857143,7,3,"Love & Hate Tattoo And Piercing","","322 W Mcdowell Rd","Phoenix","AZ","85003",33.466,-112.079,9,3.8,1
"148","0DVe7UAp3qWvHPqpzQroDQ",10,7,4,"Artistry Perfected by Andrea Miller","Southeast","6539 Las Vegas Blvd S, Ste 110","Las Vegas","NV","89119",36.0676,-115.172,10,0.3,1
"149","0DcpG11K0RNIvsquamyWjw",9.33333333333333,6,2,"My Inails","","8110 W Union Hills Dr, Ste 300","Glendale","AZ","85308",33.6532,-112.234,8,5.2,1
"150","0EPCA9LQTx_XXfxVaF6zQQ",8,5,2,"Franke Hanna WLMT & Associates","","715 Hill St, Ste 100","Madison","WI","53705",43.0741,-89.4433,7,0.3,1
"151","0EurB9I2L2mndcZC2yDwCQ",10.7142857142857,7,7,"Beauty by Kristina","","18205 N 51st Ave, Bldg 3, Ste 126","Glendale","AZ","85308",33.6518,-112.168,9,0.6,1
"152","0FMKDOU8TJT1x87OKYGDTg",9.16666666666667,6,2,"Senior's Barber Shop","","13375 W McDowell","Goodyear","AZ","85395",33.4636,-112.347,10,5.4,1
"153","0GY8oQmkk46U6JOVLMbvhA",9,5,5,"S&S Salon & Barbershop","","4360 S Decatur Blvd","Las Vegas","NV","89103",36.1106,-115.207,6,0.8,1
"154","0GqDuGbO88WQEx37Lv9dgA",7.2,5,2,"The Daily Glow","","8414 E Shea Blvd, Ste 103, Skin Savvy Aesthetics","Scottsdale","AZ","85260",33.5832,-111.899,10,0.7,1
"155","0H98N5b8wZCoJNTcx1F9iQ",8.16666666666667,6,2,"Comb Sweet Comb","","4727 E Cactus Rd, Ste 100","Phoenix","AZ","85032",33.5963,-111.98,9,0.7,1
"156","0HegKN321F0gfUcYqsLTxA",12,7,2,"Thai Spa","Westside","7365 W Sahara Ave","Las Vegas","NV","89117",36.1431,-115.254,9,10.6,1
"157","0HuLU0K_acbYDQishnEXNQ",8,6,2,"Magic Nails","Eastside","4540 E Tropicana Ave","Las Vegas","NV","89121",36.1225,-115.097,8,1.2,1
"158","0IHe0-NZhUzezHmH9Ep5ew",8.5,6,2,"Bodify","","2999 N 44th St, Ste 135","Phoenix","AZ","85018",33.4823,-111.986,10,2.5,1
"159","0JWGJCjbWEx3cSSfFRW7Ug",9.57142857142857,7,8,"Lora Boudreaux","","7331 W Lake Mead Blvd, Ste 103, Canyon Falls Spa","Las Vegas","NV","89128",36.1948,-115.252,9,0.7,1
"160","0JZYzp5Z8tEbVr0N2MaLdw",12.1428571428571,7,2,"Sephora","The Strip","3377 Las Vegas Blvd S","Las Vegas","NV","89109",36.1219,-115.17,8,11.7,1
"161","0Ja34ayGQypnhIupxwDD3g",9.5,4,2,"Hair Affair","","7007 E 5th Ave, Ste 2","Scottsdale","AZ","85251",33.4972,-111.93,10,0.5,1
"162","0JbAdxxS1aZZxCjucbTuAQ",9,5,7,"Idol Eyes Studio","","13547 N Litchfield Rd, Ste 25","Surprise","AZ","85379",33.6069,-112.357,10,0.6,1
"163","0LVDdXvdnqP5gz0B9Hu8YA",7.16666666666667,6,4,"Arizona Laser & Skin","","15835 S 46th St, Ste 132","Phoenix","AZ","85048",33.3027,-111.984,7,0.9,1
"164","0MClc59pEqhTht6iB1hwzA",7.8,5,2,"Shannon Smith","Southeast","9550 S Eastern Ave","Las Vegas","NV","89123",36.0153,-115.119,10,0.8,1
"165","0Mi7HJ9S5BGVnooQZAEm3Q",11,2,2,"Sidneyjoy Salon","","1401 E Williams Field Rd, Ste 30","Gilbert","AZ","85295",33.3065,-111.76,10,0.3,1
"166","0NAZOnbTPw4Rpn9_8BncMA",10.4285714285714,7,4,"Ulta Beauty","","415 Cox Rd","Gastonia","NC","28054",35.2626,-81.1355,8,0.9,1
"167","0NBsEzgEQ5E-CycaFekA3w",7.5,6,2,"Accelerated Dental","Spring Valley","6115 S Rainbow Blvd, Ste 102","Las Vegas","NV","89118",36.0773,-115.243,10,0.4,1
"168","0OZckGHdpbhMMy8ex2MRBQ",11,7,3,"Happy Family Foot Spa","","7607 E Mcdowell Rd, Ste 102A","Scottsdale","AZ","85257",33.4652,-111.917,8,0.8,1
"169","0OeQxzGAj96ADVQ8id-qSw",9,5,2,"Mohave Dermatology","Sunrise","1875 Nellis Blvd","Las Vegas","NV","89104",36.1507,-115.066,8,0.6,1
"170","0P2XXYCRXjdiz8-COn--FQ",8,5,2,"Karl B Hiatt, MD","","4540 E Baseline Rd, Ste 117","Mesa","AZ","85206",33.3804,-111.737,7,0.6,1
"171","0PJH1QHvBcfkC0c3IAK0ww",8.83333333333333,6,2,"Best Nails","","30646 Detroit Rd","Cleveland","OH","44145",41.471,-81.8898,9,0.3,1
"172","0R4y7MOO_lD-0alCA68XEQ",11,6,4,"Par Exsalonce","","20707 N Pima Rd, Ste 100","Scottsdale","AZ","85255",33.674,-111.889,9,5.1,1
"173","0S7UQppBEa-orSd_-YHXGA",10.4285714285714,7,2,"Secretos Beauty Salon","Sunrise","1499 N Lamb Blvd","Las Vegas","NV","89110",36.1863,-115.08,9,0.3,1
"174","0SCHQdFVdfnF8AN_xjsozA",8.57142857142857,7,4,"Simply Natural Nails","","4939 West Ray Rd, Ste 25","Chandler","AZ","85226",33.3184,-111.926,10,7.4,1
"175","0SodPiLSWvNaOqRgjVq6Bw",9,5,6,"Permanent Makeup by Rebecca","Westside","5722 W Charleston Blvd","Las Vegas","NV","89146",36.1593,-115.22,10,0.3,1
"176","0T9Bp_vXjCnPria4SWv8mA",9.57142857142857,7,2,"Sassy Nails","Centennial","6454 Sky Pointe Dr","Las Vegas","NV","89131",36.2812,-115.262,7,4,1
"177","0THp0OXZnZI_dXkVoxqhYg",12,7,3,"Massage Heights South Pointe Plaza","Anthem","10420 S Eastern Ave, Ste 110","Henderson","NV","89052",36.0021,-115.106,8,5.9,1
"178","0Tf3SbtiT1vxhVYgZPbtLg",10.4285714285714,7,3,"Ulta Beauty","University City","8150 Ikea Blvd, Ste 5","Charlotte","NC","28262",35.2958,-80.7622,5,2.7,1
"179","0Tngrp_qlzp4Z95RrbcmAw",9,5,2,"Dermatology & Skin Surgery Specialists","","8415 N Pima Rd, Ste 212","Scottsdale","AZ","85258",33.5571,-111.891,9,3.7,1
"180","0UAmxbjAikZoG0Leds0MFA",9.8,5,5,"Botanicals Salon and Spa","","15332 W Bell Rd, Ste 121","Surprise","AZ","85374",33.6393,-112.39,6,2.3,1
"181","0UvhhpDm26cZwyitX7xJfA",9,6,2,"Nail Creations","Westside","8125 W Sahara Ave, Ste 150","Las Vegas","NV","89117",36.1425,-115.269,9,1.5,1
"182","0Ve_CtvgUpIem78axHpvGQ",9.42857142857143,7,2,"Queen's Nails","","4639 East Cactus Rd","Phoenix","AZ","85032",33.598,-111.984,10,0.9,1
"183","0WNlzy9vkHEvVNOSEcI5rw",5.57142857142857,7,5,"Colette's Body & Sole Day Spa","","102 W Pike St","Houston","PA","15342",40.2225,-80.2186,10,0.4,1
"184","0WpuLq-LfiNzIzmzszdfSg",10,7,3,"Fantastic Sams Hair Salons","","5045 W Baseline Rd Ste A-125","Phoenix","AZ","85339",33.3759,-112.167,5,1.1,1
"185","0XQJbJil68MFRSZfNuo8cg",9.16666666666667,6,7,"Brandi Gilstrap","","170 S Green Valley Pkwy, Ste 35, Sola Salons Studio","Henderson","NV","89012",36.0161,-115.058,10,0.5,1
"186","0YmhPPyyHCoRbzCpBW59NA",14.7142857142857,7,2,"Peaks Athletic Club","","12545 N Saguaro Blvd","Fountain Hills","AZ","85268",33.5991,-111.716,8,1.1,1
"187","0Z5cGFQ8WLrT_YShxWsSWA",9,6,5,"Vlashed","","3840 N 32nd St, Ste 5","Phoenix","AZ","85018",33.493,-112.013,5,1.1,1
"188","0ZGcpDtabBE_Pu9bQAPmOA",9.83333333333333,6,5,"Tease Hair & Body Parlor","","15112 Detroit Ave","Lakewood","OH","44107",41.4852,-81.8019,8,3.7,1
"189","0ZSzw2slocOozPpF-ksM7w",9,6,2,"Whole Earth Massage By Apple","","620 Ridgewood Xing Dr, Ste E","Fairlawn","OH","44333",41.1121,-81.6122,6,0.5,1
"190","0ZwNjpGFZQJrvqV_VKDwWQ",10.4285714285714,7,4,"Supercuts","","2225 E Centennial Pkwy, Shadow Creek Marketplace","North Las Vegas","NV","89081",36.2759,-115.12,8,0.8,1
"191","0_JC4qCPJYCBizFOJSvElQ",12.8333333333333,6,3,"Simplicity Laser Hair Removal","Southeast","870 Seven Hills Dr, Ste 104","Henderson","NV","89052",35.9963,-115.122,6,5.1,1
"192","0_b7sBxmphrCwmKTJY1ekQ",8,6,2,"Inkz Tattoo Company","","9206 S Avenida Del Yaqui, Ste 4","Guadalupe","AZ","85283",33.3635,-111.964,10,0.4,1
"193","0a9U5Bu_WvMv2jsQyty9cw",9.83333333333333,6,5,"Serenity Salon & Spa","Ballantyne","16131 Lancaster Hwy","Charlotte","NC","28277",35.0287,-80.8512,10,1.3,1
"194","0aPaRrZp7iH0PiYnXoa1NQ",7.2,5,2,"Joseph Goth, MD, DMD - Oral Surgery & Dental Implant Center","","980 Beaver Grade Rd, Ste 103","Moon Township","PA","15108",40.5069,-80.2099,10,0.3,1
"195","0bfb9LtVdTxpD6NenU3Ljw",9.57142857142857,7,3,"Bella Mia Nails & Spa","Southwest","7345 S Rainbow Blvd, Ste 100","Las Vegas","NV","89118",36.0551,-115.244,9,5,1
"196","0bjg86HPC0slZgsirR8kuA",10,4,6,"Inspirations Hair Design","","1940 W Chandler Blvd, Ste 14","Chandler","AZ","85224",33.3071,-111.876,10,0.6,1
"197","0cILAS0WDttKm8kf-o_CKQ",10,2,2,"Crown of Eternity","Highland Park","1032 Winterton St","Pittsburgh","PA","15206",40.4728,-79.9134,10,0.5,1
"198","0du8CZ9g4KoMeYTReQc3dg",8.57142857142857,7,2,"Zev's New York Barber Shop","","1512 W Bell Rd","Phoenix","AZ","85023",33.641,-112.092,10,3.9,1
"199","0fWnR8QmbVtsPODghH7NKw",5.5,6,4,"TRU Skin Esthetics","South End","2133 Southend Dr, Ste 105","Charlotte","NC","28203",35.2071,-80.8598,10,0.3,1
"200","0fiu1iF4yactWy4asbpvbw",11,7,4,"An Feet First","","1300 W Sunset Rd, Ste 1510","Henderson","NV","89014",36.0638,-115.04,10,1.8,1
"201","0gNb5h-37yKBxvOnCxnEHQ",9.42857142857143,7,5,"Grand Nails Lounge","","7077 E Mayo Blvd, Ste 100A","Phoenix","AZ","85054",33.6538,-111.928,9,2.7,1
"202","0gPxFEPPyPGcCvCs2lW4UQ",7.83333333333333,6,4,"Element Day Spa Inc","","961 Brodhead Rd","Coraopolis","PA","15108",40.5203,-80.2246,8,1.4,1
"203","0hlQbEOdqNBagHP6xFgRRQ",7,6,2,"Step Up Styles","","3248 Old Frankstown Rd","Pittsburgh","PA","15239",40.446,-79.7122,10,1.1,1
"204","0i6GlR5YTCMlwthjqw6ZTQ",8.28571428571429,7,2,"Cinthya's Beauty Salon","Westside","2101 S Decatur Blvd, Ste 11","Las Vegas","NV","89102",36.1487,-115.21,9,1.5,1
"205","0i9sw8P1gxKViAUyYCd6Ew",7.16666666666667,6,3,"Wax Appeal","","1202 E Maryland, Ste 1C","Phoenix","AZ","85014",33.5313,-112.056,10,4.7,1
"206","0iRi1_TyI92VBmn3h-fSaQ",7,7,5,"24/7 Salon & Day Spa Studio","","4965 W Tropicana Ave, Ste 105","Las Vegas","NV","89103",36.0993,-115.209,7,10.5,1
"207","0iV1TucSgXVYHtO7PrXveA",10.4285714285714,7,3,"Light Salon & Spa","","35840 Chester Rd, Ste G","Avon","OH","44011",41.4682,-82.0156,7,0.7,1
"208","0kLBvZIjRP65IhCXhQXBlw",8.66666666666667,6,2,"1 Nails &Spa Salon","","244 N Century Ave","Waunakee","WI","53597",43.1936,-89.4612,6,0.4,1
"209","0kMqHBv4LPaUAx6P-pIScg",11,6,2,"Bobbi Brown Cosmetics at Nordstrom","The Strip","3200 Las Vegas Blvd S","Las Vegas","NV","89109",36.1272,-115.172,8,0.4,1
"210","0l6oTMjWvmVI3Pc6TPvFxA",10.1666666666667,6,2,"Azeal Barber Shop","University City","10230 Berkeley Place Dr","Charlotte","NC","28262",35.3273,-80.7388,10,0.6,1
"211","0lKsDdM1ewhGtCRXYvSFMw",8,6,3,"T.H.E Salon","Westside","2975 S Rainbow Blvd","Las Vegas","NV","89146",36.1357,-115.244,6,3.7,1
"212","0mY9YLamWBOwRmMhI4LP6Q",8.4,5,6,"Sugaring LV","Centennial","6461 N Durango Dr","Las Vegas","NV","89149",36.2781,-115.288,10,1.4,1
"213","0mq2uhooR7IbC6q4uUaQ3g",9,5,2,"Hair Now Salon","Southeast","9850 South Maryland Pkwy, Ste 101","Las Vegas","NV","89183",36.0108,-115.134,10,0.3,1
"214","0nC6DvVibGPKwMp65WiU7A",10,6,2,"Rumors Salon","","7001 N Scottsdale Rd","Scottsdale","AZ","85253",33.5393,-111.921,9,13.4,1
"215","0nS_MnQeU507CubsuQv5Bw",8.83333333333333,6,3,"Twins Barber Shop","","3415 W Thunderbird Rd","Phoenix","AZ","85053",33.6093,-112.131,10,4.5,1
"216","0nqtCtYUfwXjJVujzU79dg",10,7,5,"Ecktor Romero - ERmakeovers at My Salon Suite","Southeast","9850 S Maryland Pkwy, Ste 14, Sugar Skulls Salon","Las Vegas","NV","89183",36.0108,-115.134,10,0.4,1
"217","0oH6k_64phGXAY89Y9tx_w",10.1428571428571,7,2,"Sport Clips Kierland Village Center","","6501 E Greenway Pkwy, Ste 121","Scottsdale","AZ","85254",33.6254,-111.94,8,1.6,1
"218","0oYHxYOeeoEfYVKTG-hRuw",9.42857142857143,7,4,"3D Nails Spa","","5992 A Steubenville Pike","McKees Rocks","PA","15136",40.4463,-80.1442,8,1.3,1
"219","0pvEQRFVBjxz1W7dNpNZFg",12.8571428571429,7,6,"Diamond Nails & Spa","Southwest","7775 S Rainbow Blvd, Ste 125","Las Vegas","NV","89139",36.0471,-115.244,8,58.5,1
"220","0pyYtAEHtjJ6Lph42US9Aw",9,7,4,"Willow Hair Design","","14676 N Frank Lloyd Wright Blvd, Ste 125","Scottsdale","AZ","85260",33.619,-111.877,10,1,1
"221","0qJC_sl3ZFliXRLnzzGR5Q",6.5,6,3,"Injexts","","10201 N Scottsdale Rd","Scottsdale","AZ","85253",33.5787,-111.926,10,1.6,1
"222","0qayzrNKvLTzRYbZvcKPAg",9.71428571428571,7,2,"Tiki Nail Bar","","1838 W Bell Rd","Phoenix","AZ","85023",33.6407,-112.099,5,2.8,1
"223","0qoJ6t64EeM0tJs_5BmMSg",8.6,5,2,"Bellies and Babies","Cotswold","4416-C Monroe Rd","Charlotte","NC","28205",35.193,-80.786,10,1.8,1
"224","0r9T36NuaruZrCQt5gQ70A",10.2857142857143,7,4,"Supercuts","","918 W Town Center Blvd, North Prospect","Champaign","IL","61822",40.1431,-88.2596,7,0.9,1
"225","0rU0OjYEEzjr_AokTspqbw",10.7142857142857,7,3,"Sun Beauty Supply","","3446 W Camelback Rd, Ste 147","Phoenix","AZ","85017",33.5104,-112.133,8,0.3,1
"226","0rfJ0XhKDiJSnZ_Jg256mg",9.33333333333333,6,2,"Living Oasis Healing Studio","","2738 S Emerson Cir","Mesa","AZ","85210",33.3652,-111.856,10,0.7,1
"227","0s8BqnqeQjZX0LU76qEpOg",9.28571428571429,7,3,"LunchboxWax Scottsdale","","6590 N Scottsdale Blvd, Ste 130","Scottsdale","AZ","85253",33.5332,-111.926,10,11.2,1
"228","0sQb2y9-yLstti4KhdGisA",9.4,5,2,"Chosen Art Tattoo & Studio","","13625 N 59th Ave","Glendale","AZ","85304",33.6092,-112.186,8,0.5,1
"229","0svMWv5O3I77ddVf-RlE9A",9,5,5,"Glisten Up","","19805 N 51st Ave","Glendale","AZ","85308",33.6661,-112.169,10,0.5,1
"230","0tPFrn73ArJiIPMRWbVVSQ",9,5,2,"Vanity Nail Bar","","3460 E Southern Ave, Ste 106","Mesa","AZ","85204",33.3949,-111.756,7,2.6,1
"231","0tRqRaU2xBAeSGQitgRvoQ",9.42857142857143,7,2,"Luxury Nails Bar","","8278 W Lake Pleasant Pkwy, Ste 102","Peoria","AZ","85382",33.6704,-112.238,8,1.9,1
"232","0tYZ8Pyhwg4k76SJKg6w-A",8.42857142857143,7,3,"Square One Nails & Spa","","13915 Cedar Rd","South Euclid","OH","44118",41.5021,-81.539,6,1.5,1
"233","0uBxMuP3lW1YbzscGyPYkQ",10,6,5,"D&M Salon Spa","Spring Valley","3545 S Fort Apache Rd, Ste 120","Las Vegas","NV","89147",36.1252,-115.297,8,0.5,1
"234","0ukCpm8fabI2xNJ8KSSXww",14,7,2,"Walgreens","","8816 E Pinnacle Peak Rd","Scottsdale","AZ","85255",33.6992,-111.889,3,1,1
"235","0vZ3AyWq55o2c5org4Ld_A",10,6,4,"Best Eye Brows Threading","Southeast","9890 S Maryland Pkwy, Ste 5","Las Vegas","NV","89183",36.0102,-115.135,9,1.9,1
"236","0wCs3zbATXLMDcja3bgXig",12.1428571428571,7,2,"Lush","The Strip","3500 Las Vegas Blvd","Las Vegas","NV","89109",36.1186,-115.175,9,2.4,1
"237","0x3ERbyhjk5XMMAlZigitw",10.5,6,4,"Barberia Little Italy","Little Italy","12115 Mayfield Rd","Cleveland","OH","44106",41.5089,-81.598,10,0.3,1
"238","0xPUAqWb38y8P8UvUBHCOw",8,7,4,"Wondrous Hair by Maurees","Spring Valley","4001 S Buffalo Dr, Ste 129, Touch Salon","Las Vegas","NV","89178",36.0773,-115.243,10,1.1,1
"239","0xQprjWNceXTanEOYC3_BA",10,6,5,"TC Nails & Spa","","5096 Nc Hwy 49 S","Harrisburg","NC","28075",35.3212,-80.6605,8,0.4,1
"240","0xo3bFKKQQmKjykYAJwH5g",11.1428571428571,7,4,"European Wax Center","Anthem","10271 S Eastern Ave","Henderson","NV","89050",36.0029,-115.111,8,7.2,1
"241","0yw0rDT0aOvWn2FMGFPpPw",9.42857142857143,7,2,"Creative Nails By Susan","","4040 S Arizona Ave, Ste 20","Chandler","AZ","85248",33.2465,-111.843,8,4,1
"242","0z010Dfuv-PLUIukFhYEHQ",10.2,5,3,"Hydrate Salon and Spa","","18261 N Pima Rd, Ste 125","Scottsdale","AZ","85255",33.6528,-111.886,9,1.5,1
"243","1-8uoxuNCdaHlfPneJrusA",9,4,2,"Epic Natural Beauty","","3820 E Ray Rd, Ste 26","Phoenix","AZ","85044",33.3176,-112.003,10,0.7,1
"244","1-aBdzBr7tCsVcfqfcQ_vA",6.33333333333333,6,2,"Insights For Life - Martha Reed, PhD","","18589 N 59th Ave, Ste 108, Center for Holistic Wellness","Glendale","AZ","85308",33.6537,-112.185,10,0.5,1
"245","10xKelnuR7KHeUW-ibEq2Q",9.28571428571429,7,4,"Piazza Salon & Spa","","8460 E Washington St","Chagrin Falls","OH","44023",41.4128,-81.3399,8,0.4,1
"246","11PZaYWrnnWIzrQmnmGfiQ",9,5,6,"Scottsdale Tangles Salon","","10050 N Scottsdale Rd, Ste 105","Scottsdale","AZ","85253",33.5777,-111.928,9,1.1,1
"247","11qkCpHki5hlvYjJHUFPGw",9.33333333333333,6,3,"Diana Rainbow Nails","","6620 W Flamingo Rd, Ste 11","Las Vegas","NV","89103",36.1149,-115.237,8,2.3,1
"248","12CdqhsVJXgx4AE9ykG09A",10.3333333333333,6,3,"THORPS haircuts & color","Williamson - Marquette","1988 Atwood Ave","Madison","WI","53704",43.0926,-89.3552,9,12.5,1
"249","12EDcm_yr8IgpscPYcpJUQ",10,5,2,"Artistry Hair Design","Southeast","7700 Las Vegas Blvd S, Ste 7","Las Vegas","NV","89123",36.0491,-115.171,10,0.8,1
"250","12M1imuxjNJAeDO2QLs9sw",11.2857142857143,7,2,"Sally Beauty Supply","Chinatown","3625 S Rainbow Blvd","Las Vegas","NV","89103",36.1231,-115.246,4,1.5,1
"251","12g_z3nFKbN2telbzG5ZWQ",10,7,3,"Opi Nails & Spa","","3840 W Lake Mead Blvd, Ste 105","North Las Vegas","NV","89032",36.1984,-115.19,4,3.1,1
"252","132kYoXPHORw_FgxvQfyGQ",10,6,4,"Hot Locks Salon","","31130 Center Ridge Rd","Westlake","OH","44145",41.4209,-81.9653,6,0.6,1
"253","13EssEAKW5Wd9p7_HDsUPg",8,5,4,"Salon La Te Da","","331 Castle Shannon Blvd, Ste 1","Pittsburgh","PA","15234",40.3763,-80.0367,7,0.7,1
"254","13HBTudUhWV-fOw3dJx21A",7.66666666666667,6,2,"Essential Elements","","7055 Engle Rd, Ste 401","Middleburg Heights","OH","44130",41.3754,-81.8238,8,0.8,1
"255","148BlXeNBxjHyOGw4BxmkQ",10.4285714285714,7,4,"Ulta Beauty","","2501 W Happy Valley Rd, Ste 38","Phoenix","AZ","85085",33.7101,-112.112,6,3.4,1
"256","14Ibb_bJSUe2BGfhckOc1Q",8.83333333333333,6,4,"Shella Nails And Spa","Southwest","8680 W Warm Springs Rd, Ste 23, Sola Salon Studio","Las Vegas","NV","89148",36.0561,-115.281,8,1,1
"257","14k1VdNAkm5-G7_lpRHV1g",12.1428571428571,7,6,"Original Diva","The Strip","Planet Hollywood Resort Casino, 3663 Las Vegas Blvd S, Ste 440","Las Vegas","NV","89109",36.1097,-115.17,6,6.7,1
"258","14lDfZrfNccM6Hi4ins2hA",10,7,5,"Inizio Salon","","4206 N Goldwater Blvd","Scottsdale","AZ","85251",33.4967,-111.931,10,1.4,1
"259","15UtQDK9edy1UqPSOaIGgw",10.2857142857143,7,2,"Bath And Body Works","","15279 N Scottsdale Rd Scottsdale Quarter","Scottsdale","AZ","85260",33.6259,-111.925,7,0.3,1
"260","15y3hXc2mzZOp1K9YNvIZQ",8.33333333333333,6,2,"Salon Majestic","","20851 N 83rd Ave, Ste 101","Peoria","AZ","85382",33.6734,-112.238,9,0.4,1
"261","16PHeW5T0VW6W9qmALCSnQ",9,6,2,"US Nails","","4411 Kent Rd","Stow","OH","44224",41.1559,-81.4028,7,0.3,1
"262","17KjGxHTPCRwkPdEL95QPg",9,6,2,"Reflecting Hands Massage Therapy","Westside","5450 W Sahara Ave, Ste 138","Las Vegas","NV","89146",36.1449,-115.216,9,6.3,1
"263","18FDlJmk4d4UnMir8KbYjg",14,7,2,"Walgreens","","3434 W Southern Ave","Phoenix","AZ","85041",33.3927,-112.133,6,0.4,1
"264","18u6-ygaOgVNxWqbH3kVYg",7,6,2,"Stem Handmade Soap","","12405 Madison Ave","Lakewood","OH","44107",41.4767,-81.7754,8,0.6,1
"265","19LMPCmoRpn7TG5QybeL5g",9.28571428571429,7,2,"Blush Nail Boutique","","2804 Prairie Lakes Dr, Unit 105","Sun Prairie","WI","53590",43.1656,-89.2701,5,3.3,1
"266","19Vh858DU1wS8eZGH_qw8A",7,4,5,"Arizona Laser Skin Solutions","","512 E Southern Ave, Ste D","Tempe","AZ","85282",33.3932,-111.931,10,0.9,1
"267","19c-I0QIzSpcRb8-6U593g",9.42857142857143,7,2,"5 Star Nail & Spa","","8333 Greenway Blvd, Ste 110","Middleton","WI","53562",43.0897,-89.5265,8,2.1,1
"268","1A29iZ18ontC4vdaTJVMCQ",8.8,5,6,"Armis Salon & Spa","Ballantyne","12210 Copper Way, Ste 218","Charlotte","NC","28277",35.0712,-80.8442,6,1.6,1
"269","1ANFRM2vbofw6DDRebJMWg",9,7,7,"Health In Harmony","","300 S Broadway Ave","Urbana","IL","61801",40.1106,-88.2071,10,0.5,1
"270","1AORtluSJ_EXpv5DF3CiLw",8,4,3,"Chic Skincare Studio","","7337 E Shea Blvd, Ste 110-2","Scottsdale","AZ","85260",33.5817,-111.923,10,0.3,1
"271","1Awq-e36ypxkdgya_CjBAw",8.5,6,5,"Dani's Hair Loft","","500 Pine Hollow Rd","Kennedy Township","PA","15136",40.4739,-80.0968,10,0.3,1
"272","1C3vpQTPB2BA5kNQSzVY9w",6.57142857142857,7,6,"PHX Hair","","3201 N 16th St, Ste 4","Phoenix","AZ","85016",33.4853,-112.047,9,0.7,1
"273","1Dp_iS3rC98kcIYxO6je1g",9.8,5,4,"Salon Nuvo","Downtown","609 Penn Ave, Ste 203","Pittsburgh","PA","15222",40.4428,-80.0018,9,2.6,1
"274","1E57waB10Z6usQicefQ59g",10.2857142857143,7,4,"Sport Clips Haircuts of Champaign - Neil Plaza","","1903 N Neil St, Ste A","Champaign","IL","61820",40.1392,-88.2448,9,0.6,1
"275","1EIou6y4IZPDMbLBWJPpNA",9.28571428571429,7,5,"Seva Beauty","Centennial","8060 W Tropical Pkwy","Las Vegas","NV","89149",36.2723,-115.269,9,0.3,1
"276","1EbdmUMbrS12DougfSOqHw",13.2857142857143,7,2,"Kohl's","","6650 N 5th St","North Las Vegas","NV","89084",36.2809,-115.133,7,2.8,1
"277","1EnBxExrsSbJiGZqjSjUng",9.42857142857143,7,2,"Relaxation4All","","5320 N 16th St, Ste 209","Phoenix","AZ","85016",33.5148,-112.048,10,1.1,1
"278","1GC_e8GLTTQexblkkrz5dg",9.57142857142857,7,4,"Social Nail Bar","Anthem","2280 Paseo Verde Pkwy, Ste 120","Henderson","NV","89052",36.0221,-115.088,9,3.5,1
"279","1GZ-7msFdzhNvopCvkoHSA",7,5,3,"Lash Me Now","South End","222 E Tremont Ave","Charlotte","NC","28203",35.2091,-80.8595,8,0.4,1
"280","1HlrGBkaNMQ1taV4Dt5sEQ",7.5,6,3,"Hair by Liana","","7331 W Lake Mead","Las Vegas","NV","89128",36.1948,-115.252,10,0.4,1
"281","1J-Xb0k_2RWEcWhSUTDuoA",7.85714285714286,7,4,"Hair & Beauty 702","South Summerlin","10965 Lavender Hill Dr, Ste 100","Las Vegas","NV","89135",36.1461,-115.334,10,0.3,1
"282","1JANhexd2jvpNs2wj6f1lA",10,6,6,"Love Threading Bar","Ohio City","2030 W 25th","Cleveland","OH","44113",41.4837,-81.7033,4,1.6,1
"283","1JEmBa6NYiJAOkRcHviEmw",10.5,6,6,"Charles Scott Salons & Spas","Detroit-Shoreway","19025 Lake Rd","Rocky River","OH","44116",41.4793,-81.74,7,1.9,1
"284","1Jm9RryI6hDg5tSqqIeMfA",10.6,5,3,"Tracies Manicurist","","930 E Warner Rd","Chandler","AZ","85225",33.3358,-111.827,10,0.4,1
"285","1Jw6wQ4qXDj18m3dDOlgAw",7.6,5,2,"Rejuvent Medical Spa & Surgery","","9155 E Bell Rd","Scottsdale","AZ","85260",33.6393,-111.884,6,0.5,1
"286","1K2D2wsxprU54FpkeDZTiQ",8.85714285714286,7,5,"Kingz Tattoo Parlor","Spring Valley","4001 S Buffalo Dr","Las Vegas","NV","89147",36.1165,-115.261,10,2.5,1
"287","1KSqLKRQNMONRN6NNzwR2w",8.28571428571429,7,6,"Ancala Nails","","11300 E Via Linda, Ste B","Scottsdale","AZ","85259",33.5904,-111.836,8,1.6,1
"288","1Mox_7Z5nsG08suxhU8BQg",6.2,5,3,"Serene Beauty Face and Body","","433 Grand Canyon Dr, Ste 4","Madison","WI","53719",43.0588,-89.4957,10,0.3,1
"289","1MxyFhzNpeIvTQHjtp-bSg",9.57142857142857,7,2,"Diva Nails","","6611 W Peoria Ave, Ste 2","Glendale","AZ","85302",33.5808,-112.201,8,3.6,1
"290","1N5Wjt-EbMCxU3--19WcAA",9,5,2,"Reynolds Plastic Surgery","Centennial","5550 Painted Mirage Rd, Ste 217","Las Vegas","NV","89149",36.2618,-115.255,10,1.5,1
"291","1NSP2-yi1jHJpos-F2080Q",9,5,2,"Beyond Beauty Lashes","Southeast","8480 S Las Vegas Blvd, Ste 130","Las Vegas","NV","89123",36.0357,-115.172,9,0.9,1
"292","1NjEKMltuzp9U4UleGZruQ",9,6,2,"The Spa","Eastside","255 E Flamingo Rd","Las Vegas","NV","89169",36.1134,-115.16,9,1.8,1
"293","1OEO4jA9VdKgC7_O8_6b_g",9.57142857142857,7,5,"New Look Hair Nail & Spa","","13749 N Litchfield Rd","Surprise","AZ","85379",33.6088,-112.357,4,0.4,1
"294","1Ob1ozwl0y4gqnO096mCeg",9.42857142857143,7,4,"Shayna's Nails & Spa","","4221 E Chandler Blvd","Phoenix","AZ","85048",33.304,-111.994,9,3.5,1
"295","1Qewb20-9iag5bJ3uZF8Rw",8,5,3,"Goddess Salon","","4747 N Scottsdale Rd","Scottsdale","AZ","85251",33.5052,-111.924,10,0.6,1
"296","1ROp6NSMYaXPqAjo8ubAtA",12,7,3,"Beneath The Surface Tattoos","Southeast","3345 E Patrick Ln, Ste 138","Las Vegas","NV","89120",36.0785,-115.102,7,0.7,1
"297","1S1d10hiwGQ4bxhK-16Bpw",10,5,4,"Arrowhead Dermatology","","7767 W Deer Valley Rd","Peoria","AZ","85382",33.6808,-112.226,6,3.1,1
"298","1S7y_SyqPQ0xMjaXvpnc1A",7,6,2,"Bernard Dunn Professional Tattooing","","5075 Arville St","Las Vegas","NV","89118",36.0976,-115.199,10,0.6,1
"299","1SLJKRYPRifERga33AjK7Q",8.57142857142857,7,4,"Cloud Nine Salon and Spa","","8707 S Priest Dr","Tempe","AZ","85284",33.3356,-111.963,8,7.7,1
"300","1TCIxA1lh1zqfZqThCY7Rw",7.42857142857143,7,6,"Wink Wink Blink","Anthem","2490 Paseo Verde Pkwy","Henderson","NV","89074",36.0199,-115.096,9,1,1
"301","1TYFwHObduSWn_1inRzkBQ",6,5,3,"Stella Bella","","9689 N Hayden Rd, Ste 46","Scottsdale","AZ","85253",33.5748,-111.906,8,1.3,1
"302","1TZ1AGd22wIchtsWkTeG5Q",3.5,4,2,"Haggard Chiropractic","","9675 W Camelback Rd","Phoenix","AZ","85037",33.5085,-112.268,10,1.8,1
"303","1Tall5Q7Jj18vbEnvMqY9g",9.42857142857143,7,5,"Broadmoor Nail Spa","","6025 Kruse Dr, Ste 113","Solon","OH","44139",41.3939,-81.4446,9,1.4,1
"304","1UCuElYKIgONqbe7FR9JVQ",8,6,2,"Marks Massage Therapy and Pain Management","","","Murrysville","PA","15668",40.4269,-79.6851,8,0.5,1
"305","1UieHBJ2hlGUv9X53G2M6A",9.57142857142857,7,2,"Nails By Males Beauty Lounge","","1290 N Scottsdale Rd, Ste 101","Tempe","AZ","85281",33.4429,-111.928,9,4.7,1
"306","1UmAo-UZoDcAkHd0O2kfsg",9.42857142857143,7,2,"Madd House Tattoo","Eastside","557 E Sahara Ave","Las Vegas","NV","89104",36.1435,-115.149,8,0.8,1
"307","1VK3xb4nyFWZP7BicNQxUw",10.6666666666667,6,4,"Sachi Salon & Spa","","4821 N Scottsdale Rd","Scottsdale","AZ","85251",33.5066,-111.926,9,13.3,1
"308","1VLv3k0myWk0GTs84D8utA",7.71428571428571,7,2,"Sun Hair Salon","Goodrich Kirtland","3710 Payne Ave","Cleveland","OH","44114",41.5094,-81.6622,7,2,1
"309","1Vq4jEtg6rp_x5g3kYRGkQ",7.71428571428571,7,3,"Pip & Lola's Everything Homemade","","3614 Main St, Fl 1","Munhall","PA","15120",40.3847,-79.9038,10,0.6,1
"310","1XZ9ItmYZuxYP4GgrcDCJg",10.2857142857143,7,7,"Crazy Mullets Coventry","","1830 Coventry Rd","Cleveland Heights","OH","44118",41.5097,-81.5802,8,2.9,1
"311","1XjmwIo8RPfmDZTjAMKRaA",9.42857142857143,7,6,"Bellagio Nails Blowout Bar","","8321 Magnolia Estates Dr, Ste B","Cornelius","NC","28031",35.4748,-80.8885,8,0.4,1
"312","1Xq-uvhABhp_DODQdMmpPA",10,7,3,"Cost Cutters","","4810 E Ray Rd Ste 9, Foothills Park Plaza","Phoenix","AZ","85044",33.3212,-111.98,6,0.5,1
"313","1Z1SH6kLoeJVwkWY1BXvyQ",10.4285714285714,7,2,"Lush Cosmetics","","1000 Ross Park Mall Dr","Pittsburgh","PA","15237",40.5434,-80.0077,10,0.9,1
"314","1ZCtAVoNCKDihfZeVR_OQQ",9.66666666666667,6,4,"Tatum Hair And Nails","","13843 N Tatum Blvd, Ste 25","Phoenix","AZ","85032",33.6131,-111.977,10,0.9,1
"315","1ZnY1iVPw8pPfbOh-m12-A",7.4,5,2,"Onyx Salon For Nails, Body & Soul","","510 Station St, Ste 6","Bridgeville","PA","15017",40.3572,-80.1106,9,1.7,1
"316","1_2I3175jm3VmRsI6VYjDA",8,6,2,"BodyTech Sports Massage","","7272 E Indian School Rd, Ste 540","Scottsdale","AZ","85251",33.4957,-111.924,10,1.2,1
"317","1_3Ky5jhxvyoZifOjItuvw",10.1428571428571,7,4,"Men's Ultimate Grooming","","2512 S Val Vista Dr, Ste 104","Gilbert","AZ","85295",33.3049,-111.756,8,0.8,1
"318","1_8L4ago8-ht0ckNO6ITgA",8,5,2,"G Robert Meger, MD","","3333 E Camelback Rd, Ste 140","Phoenix","AZ","85018",33.5097,-112.01,9,2.1,1
"319","1_Bwp-442E_YWFimEEzhVw",9.66666666666667,6,3,"Gentlemen Joe's Barber Shop","","805 N Dobson Rd, Ste 113","Mesa","AZ","85201",33.4301,-111.874,7,3,1
"320","1_Qvm1orB_atyUBaKL_l1Q",9.42857142857143,7,2,"Lava Nails","","9931 E Baseline Rd, Ste 102","Mesa","AZ","85209",33.3773,-111.621,6,0.4,1
"321","1_SbdpAt9n8C1p8UOE9KQw",10.2857142857143,7,5,"Nailand","Spring Valley","4115 S Grand Canyon Dr, Ste 101","Las Vegas","NV","89147",36.1147,-115.31,9,5.7,1
"322","1_fBOk-1ZHG8oqaUL0SCyA",9,5,2,"The Refine Institute","","7725 Ballantyne Commons Pkwy, Ste 101","Charlotte","NC","28277",35.0586,-80.809,10,0.3,1
"323","1aEx-I_JdWPl6ITQDQAJxQ",12.8571428571429,7,2,"Village Barber Shop","Anthem","10608 S Eastern Ave","Henderson","NV","89052",35.9999,-115.103,8,8.3,1
"324","1avsYoUD1Vi8iKjPQfrNag",11,7,3,"Erica Lynn Makeup","","","Las Vegas","NV","",36.175,-115.136,10,0.7,1
"325","1bBODLZt3o0q22zw8ynFOw",8.8,5,4,"I Am Beauty","","13802 N Scottsdale Rd","Scottsdale","AZ","85254",33.6131,-111.927,10,1.3,1
"326","1bTOpJMpwTx_TIKVkMNkIA",9.2,5,3,"Infinite Wellness Of Fort Mill","","1698 Hwy 160 W, Ste 200","Fort Mill","SC","29708",35.0332,-80.9679,9,0.4,1
"327","1cIJ1NplF-qYqbSfwgxAIg",8.42857142857143,7,6,"Stripped Esthetics","Anthem","9975 S Eastern Ave","Las Vegas","NV","89183",36.0073,-115.115,10,2.3,1
"328","1cicW421wArHN6Q_xqy4lw",8.85714285714286,7,7,"Gypsy Beauty Lounge","Southwest","8680 W Warm Springs Rd, Ste 130","Las Vegas","NV","89148",36.0562,-115.281,10,2.4,1
"329","1ckqk-8HiwIt_AaniFFZMA",8,7,2,"Beauty Nail Art","Spring Valley","4960 S Fort Apache Rd, Ste 460","Las Vegas","NV","89148",36.0987,-115.295,10,0.4,1
"330","1d-yIypEtk1wc2PTY8xAQg",12.5714285714286,7,2,"Bodyheat Tanning","Centennial","8400 Farm Rd, Suite 1, Ste 130","Las Vegas","NV","89131",36.3,-115.28,6,1.4,1
"331","1dDKJ03XDGNHeSZqAecTtA",8.33333333333333,6,6,"Always Perfection","","1630 Schiller Ave, Ste 3","Cuyahoga Falls","OH","44223",41.1456,-81.5028,9,0.3,1
"332","1dUI1EL4lN8jF5RjunygYA",9,4,2,"Suite Bella Vita","","3936 E Chandler Blvd, Ste 122","Phoenix","AZ","85048",33.3066,-111.999,10,0.3,1
"333","1dstc7tiu64MKGk0-p-KQA",11.5714285714286,7,1,"Bed Bath & Beyond","Summerlin","10950 W Charleston Blvd","Las Vegas","NV","89135",36.161,-115.335,7,3.8,1
"334","1epSpJ6xzPtnEaO8qcwZtA",8.5,6,4,"TelliesVision","","3030 W Ann Rd, Ste 101","North Las Vegas","NV","89031",36.262,-115.182,10,0.8,1
"335","1fbmathLrHz0J_KZa4dHXg",9,5,2,"J Moose Barber Shop","","1835 N Scottsdale Rd","Tempe","AZ","85281",33.4494,-111.925,9,4.2,1
"336","1fsu5nUVYCIEPt7zDYwNIw",14,7,2,"Walgreens","","805 S Val Vista Dr","Gilbert","AZ","85296",33.335,-111.755,4,0.5,1
"337","1geTYdwDNBo3w6BUl8JOOg",9.66666666666667,6,2,"Liberty Barber Shop","","13761 W Bell Rd","Surprise","AZ","85374",33.6371,-112.357,7,2.7,1
"338","1hBCXA5IsIYH9m_Y1c4t6w",8,5,1,"KOR Beauty Academy","","16610 N 75th Ave, Ste 103","Peoria","AZ","85382",33.6347,-112.221,8,1.5,1
"339","1i99NY05D4LzrYWJ8F2X6Q",9.33333333333333,3,2,"Hairstylist Michelle King","","1940 E Camelback Rd","Phoenix","AZ","85016",33.5094,-112.04,9,1.3,1
"340","1iH2bduBD9SysUpkJonIBw",8.2,5,4,"Lulu Tru Holistic Beauty & Wellness","","14577 E Park St","Burton","OH","44021",41.4721,-81.1441,8,0.4,1
"341","1iRVBOdXSBTjRDlNWAT2gw",9.66666666666667,6,6,"Fusions","","3218 Westgate","Cleveland","OH","44126",41.4604,-81.8507,8,1.1,1
"342","1iZ5ZFkvICNjrpJvQud6Sw",9,5,5,"Salon Bohemia","","19420 N 59th Ave","Glendale","AZ","85308",33.6622,-112.187,10,1.8,1
"343","1j2wIxORmJe9XjASSWrO_w",6.71428571428571,7,3,"Workout Anytime","","21649 Lorain Rd","Fairview Park","OH","44126",41.4415,-81.8617,8,0.4,1
"344","1l-7nZDdSnSU-CLHDEkSVg",10,7,2,"D & M Nails","Squirrel Hill","2711 Murray Ave","Pittsburgh","PA","15217",40.4284,-79.9243,8,2.7,1
"345","1l3tYOeaZpR0UfOUnbKwQA",9.42857142857143,7,3,"Kai's Lash and Foot Spa","Westside","6340 W Sahara Ave","Las Vegas","NV","89146",36.1446,-115.233,10,0.7,1
"346","1l6iZ_SFrh7DKYMPqX08Mg",9.71428571428571,7,6,"Javal Brow Bar","","5515 Camino Al Norte, Ste 103","North Las Vegas","NV","89031",36.26,-115.156,9,10.4,1
"347","1lLFAegx2dpQMiRZzV7P-w",9,7,5,"Faded and Glazed","Centennial","5643 Centennial Center Blvd, Ste 150","Las Vegas","NV","89149",36.2636,-115.258,10,1,1
"348","1lmu_At_AFkgSWpNo0NZGA",11.6666666666667,6,5,"Chace Salon","","16630 W Greenway Rd, Ste 302","Surprise","AZ","85388",33.6256,-112.416,7,3.5,1
"349","1lniJ4trPfQ5U1_P4IpU_w",9.42857142857143,7,2,"Regal Nails Salon & Spa","","150 Concord Commons Pl SW","Concord","NC","28027",35.3892,-80.6226,9,0.3,1
"350","1m-cfQ3iLZvQw893F13AzA",8.4,5,5,"Derma Health Skin & Laser","","21681 N 77th Ave","Peoria","AZ","85382",33.6809,-112.225,10,2.5,1
"351","1nmjYVBhO0q3s6ldAXqPLA",7.2,5,7,"The LALA Girl Makeup & Hair Mobile Grooming","","","Charlotte","NC","28209",35.1811,-80.8488,9,1.3,1
"352","1oDT4ro2VRQPhVKa1x883A",8,7,2,"Suite 6 Beauty Bar","","1720 E Warner Rd, Ste 6","Tempe","AZ","85284",33.3353,-111.912,10,0.3,1
"353","1odCLkqn69BdZ8hO7hxzWg",9.66666666666667,6,5,"Faded Styles Barber And Beauty","","6601 W Bethany Home Rd, Ste A-15","Glendale","AZ","85301",33.5232,-112.201,6,0.4,1
"354","1pSnogYq1-nuDlZJ1_XWqw",8,5,6,"Abicenna Skin and Laser Clinic","","13575 W Indian School Rd, Ste 300","Litchfield Park","AZ","85340",33.487,-112.351,10,0.3,1
"355","1q44aWEcDN7uRvA2l8xpvQ",14,7,2,"Walgreens","Eastside","3808 E Tropicana Ave","Las Vegas","NV","89121",36.1007,-115.091,5,0.6,1
"356","1qZpjP99lRy10lOprX37Vg",9.6,5,4,"Emme Diane","","21001 N Tatum Blvd Studio 109, Inside The Beauty District Salon Suites","Phoenix","AZ","85050",33.6764,-111.974,10,5.5,1
"357","1sJs8rfowekLK_yDWB9ocg",7.2,5,4,"Fountain of Youth Aveda Salon Spa","Point Breeze","6735 Reynolds","Pittsburgh","PA","15206",40.4506,-79.9142,5,2.5,1
"358","1sKRc9vFaZ_dLQGPE_P7Dg",9.57142857142857,7,3,"Anthony Vince Nail Spa","","276 Crocker Park Blvd","Westlake","OH","44145",41.4602,-81.9518,5,6.6,1
"359","1sYUj2ELIi9mIlUmY__sgw",7.8,5,2,"Alchemist Studio","","1940 W Chandler Blvd, Ste 5","Chandler","AZ","85224",33.3073,-111.875,10,0.4,1
"360","1uCoWygbmehTJP8Su_3QVA",9.42857142857143,7,2,"Glamour Nail Bar","","1180 W Elliott Rd, Ste 104","Tempe","AZ","85284",33.3506,-111.957,8,5.2,1
"361","1vBvO5QrLzbtg9MTMdB2EA",10.7142857142857,7,2,"A1 Foot Reflexology","","1915 E Baseline Rd, Ste 101","Gilbert","AZ","85233",33.3778,-111.79,8,1,1
"362","1wbTFrlWC-MRjVU-OiveiQ",9,5,3,"Copper Willow Salon","South End","2133 Southend Dr, Ste 105","Charlotte","NC","28203",35.2072,-80.86,10,1.7,1
"363","1wxo7C5OpOI55HmV2N22CQ",13,7,5,"Immaculate U","Southwest","4270 Blue Diamond","Las Vegas","NV","89139",36.0393,-115.198,10,2.3,1
"364","1x-Sg3v1gZIjL-DP-RfQbA",10.2857142857143,7,3,"Cost Cutters","","3418 W Bell Rd, Sunset Village Shopping Center","Phoenix","AZ","85053",33.6407,-112.132,8,1.9,1
"365","1xO2LvScpcMfl2BNm1aISg",14,7,4,"Qua Baths & Spa","The Strip","3570 Las Vegas Blvd S","Las Vegas","NV","89109",36.1171,-115.175,9,54.5,1
"366","1yHK3JQk443toYb1gaHQUA",9.4,5,5,"Skinovation Skincare & Waxing","","8888 E Pinnacle Peak Rd, Ste 12","Scottsdale","AZ","85255",33.6988,-111.89,10,0.3,1
"367","1yIedrVRAfAtsG2Fk0p9Fw",9.42857142857143,7,2,"Andys Nails","","4041 E Thomas Rd","Phoenix","AZ","85018",33.4799,-111.994,5,2.2,1
"368","1yaXI6CyIvWbIR4rRsn9mA",9.5,6,4,"Studio No 7","","3240 E Camelback, Ste 7","Phoenix","AZ","85018",33.5103,-112.011,10,1.6,1
"369","1zbbaiy-YqePRnhWB1O7HA",9.42857142857143,7,2,"Bell Barber Shop","","4015 E Bell Rd, Ste 126","Phoenix","AZ","85032",33.6401,-111.995,9,1.2,1
"370","1zi_c7rwxQ3P0cHIpBT8eQ",13,7,2,"Oriental Foot Spa","Westside","5661 W Sahara Ave","Las Vegas","NV","89146",36.1429,-115.22,8,0.5,1
"371","1zl-ElImzoUYFExUdCrpmw",13.8571428571429,7,2,"Walgreens","","2737 E Mckellips Rd","Mesa","AZ","85213",33.4511,-111.771,6,0.4,1
"372","2-I9fNIEHxEVVq6r0n0A9A",9,5,3,"Up In Arms Tattoos and Piercings","","539 Carnot Rd","Coraopolis","PA","15108",40.5156,-80.2217,10,0.4,1
"373","2-_42nYnOf_RpYBf4sdMHw",9.57142857142857,7,3,"Beyond Nail Spa","Southwest","7150 S Durango Dr","Las Vegas","NV","89113",36.0581,-115.278,7,3.6,1
"374","2-hzRW7iwQE0gzQIyQnwlA",8,6,2,"John Mario's Barber Salon","","60 S Stephanie St","Henderson","NV","89012",36.0261,-115.047,9,2,1
"375","2-jI4n2kVK9ltHS-WdnGUA",8.42857142857143,7,2,"Mister Grooming & Goods","Lawrenceville","4504 Butler St","Pittsburgh","PA","15201",40.4721,-79.9588,9,6.9,1
"376","2-piM4HDzQh0vJQY3pjQ9g",8,7,3,"LV Tattoo","Downtown","25 Fremont St, Ste 210","Las Vegas","NV","89101",36.171,-115.145,8,2.5,1
"377","20Vn7iRLnZxjU4stfHkyEQ",7.8,5,2,"Salon Kismet","","5808 North 16th St","Phoenix","AZ","85016",33.5222,-112.048,9,1.3,1
"378","20qeOmBz6Ar_0FurbwSrGA",8,6,7,"Marie's Permanent Makeup","","9440 W Sahara Ave, Ste 125","Las Vegas","NV","89117",36.1193,-115.226,9,1.1,1
"379","2118OkNIYt2c-dcB6UdyZg",10,6,2,"Solar Nails","","323 E Brown Rd, Ste 203","Mesa","AZ","85201",33.4342,-111.824,7,0.8,1
"380","21lbyMhQFR7nFWnbSNhNdw",10.1428571428571,7,2,"Arizona Hair Co","","2925 E Riggs Rd, Ste 6","Chandler","AZ","85249",33.2178,-111.792,8,1.5,1
"381","21o8LzOkEMexCMdhnXzj7Q",7.8,5,4,"Elements Salon","","","Phoenix","AZ","85021",33.5634,-112.089,10,0.4,1
"382","22UJxzvG95T4lcidxvgm5w",8.71428571428571,7,2,"Proformance Health","","14300 N Northsight Blvd, Ste 116","Scottsdale","AZ","85260",33.6162,-111.898,8,1.7,1
"383","234xl6FvaEjileGm2jtKGg",8.57142857142857,7,2,"Black Lotus Tattooers","","2401 E Baseline Rd, Ste 108","Gilbert","AZ","85234",33.3785,-111.779,9,6,1
"384","23Cl40e7Z6DOCVPWhpxu3Q",8.57142857142857,7,3,"Pittsburgh Tattoo Studio","Dormont","2895 W Liberty Ave","Pittsburgh","PA","15216",40.3949,-80.0343,10,1.9,1
"385","23JboJ79qZ6cesngiPt4aw",8,3,4,"Vegas Girl Wigs","Westside","1717 S Decatur Blvd, Ste D-37","Las Vegas","NV","89102",36.1508,-115.206,7,0.5,1
"386","23PU80u2b3wodvWBqf0APw",7,6,2,"Carl's Barber Shop","","1010 E Main St","Mesa","AZ","85203",33.4155,-111.809,10,2.5,1
"387","23ccd6rfb3pNOqEGxXFRFQ",7.14285714285714,7,6,"Belia Skin & Beauty Spa","Spring Valley","5165 S Fort Apache Rd, Ste 180","Las Vegas","NV","89148",36.0957,-115.298,10,1.6,1
"388","23uvezsNprJi_pEYRWQLtw",7.2,5,5,"New Image Med Spa","","4530 E Muirwood Dr, Ste 114","Phoenix","AZ","85048",33.303,-111.986,10,2.2,1
"389","25uo5WnHoee2jNyVQ-kpPA",8.14285714285714,7,3,"Black Metal Tattoo","","13500 Pearl Rd, Ste 117","Strongsville","OH","44136",41.316,-81.8358,10,2,1
"390","26KhasJUOMx5Xua3JfOwOw",9.83333333333333,6,2,"Upscale Nails","","1046 Regent Pkwy, Ste 103","Fort Mill","SC","29715",35.0759,-80.9341,6,0.8,1
"391","26f6AynQlxbbBo2u1VxkvQ",14,7,2,"Walgreens","","17088 W Bell Rd","Surprise","AZ","85374",33.6394,-112.426,7,0.7,1
"392","26fxaH4i_P1PALGplFtdhw",7.8,5,2,"Salon Ivy","South Side","1213 E Carson St","Pittsburgh","PA","15203",40.4288,-79.9858,9,2.7,1
"393","26hQy2RMyhYxjzmlE_dNeQ",11.8571428571429,7,4,"Hand & Stone Massage and Facial Spa","","2925 S Alma School Rd, Ste 6","Chandler","AZ","85286",33.2635,-111.857,9,1.3,1
"394","27-9hCiCX14fG22ZBtbnog",9.71428571428571,7,4,"Tammy Nails Spa","","26 E Baseline Rd, Ste 118","Phoenix","AZ","85042",33.3789,-112.072,8,1.4,1
"395","27XtopcBMdl3z9QiViWjVQ",9.5,4,5,"Shear Perfection Studio","","3163 S McClintock Dr, Ste 34","Tempe","AZ","85282",33.3945,-111.908,10,0.3,1
"396","288lAybD6oJD4Nwow1R7wA",8.83333333333333,6,2,"Paradise Hills Barbers","","3114 E Shea Blvd","Phoenix","AZ","85028",33.5825,-112.015,10,2.2,1
"397","28LgISjExOl6G3h-zCLhJQ",6.6,5,2,"Anti-Aging By Olga","","9689 N Hayden Rd, Ste 37","Scottsdale","AZ","85258",33.5746,-111.904,10,0.7,1
"398","28MoceEv54TgNDsmGxokPw",12.1428571428571,7,2,"Sephora","The Strip","3663 Las Vegas Blvd S, Ste 140","Las Vegas","NV","89109",36.1107,-115.172,8,8.3,1
"399","28Scz6xcdiZWZ6KJ8YH1pg",9.14285714285714,7,4,"V's Barbershop","","5505 N 7th St, Ste 100","Phoenix","AZ","85014",33.5168,-112.065,8,2.3,1
"400","28wlUgf7QpQqziF5qsPWrA",9.66666666666667,6,2,"Chiropractic Life","","5150 N 16th St, Ste B250","Phoenix","AZ","85016",33.5122,-112.048,10,1.8,1
"401","29bGsnoqZEve9mOh8hpIzQ",8.33333333333333,3,2,"Healthy Skin by Nicole","","6949 E Shea Blvd, Ste 115, Remedy's Pilates & Massage","Scottsdale","AZ","85254",33.5818,-111.931,8,0.5,1
"402","2A-C3WBhXen91t-TXByC6w",10,7,3,"Best Cuts","","30315 Detroit Rd, The Promenade","Westlake","OH","44145",41.4622,-81.9561,7,0.5,1
"403","2A8ZI49HphKGHCYJAgR2_Q",8,5,3,"Kreate Studio","","5711 Mayfield Rd","Mayfield Heights","OH","44124",41.52,-81.474,10,0.5,1
"404","2AJ0TZ0QethJmUqZrLJxCQ",10.2857142857143,7,2,"Salon Beleza","","603 Washington Rd, Ste 2","Pittsburgh","PA","15228",40.3831,-80.0436,7,0.8,1
"405","2AtpxRG3opD2M7gtRvUUaw",9.57142857142857,7,2,"Cutie Nails & Spa","Northwest","10450 W Cheyenne Ave, Ste 110","Las Vegas","NV","89129",36.2204,-115.325,8,9.4,1
"406","2BkM5Qf60bbzLlSCiQ8Oqw",7.8,5,3,"Timothy's of Squirrel Hill","Squirrel Hill","5843 Forbes Ave","Pittsburgh","PA","15217",40.4382,-79.9212,8,0.6,1
"407","2BuY5r2GWoai6IAn9FptCg",15,7,3,"Spa & Salon At ARIA","The Strip","3730 Las Vegas Blvd S","Las Vegas","NV","89109",36.1073,-115.177,8,24.8,1
"408","2C-KTLupCM9yY1eWQ13pqA",7.42857142857143,7,2,"Beauty by Nature Supply Boutique","Highland Creek","2008 E Arbors Dr, Ste 300","Charlotte","NC","28262",35.3372,-80.7558,6,0.4,1
"409","2C-Su_yxiOfojKP5xTMmEw",13,7,2,"Bodyheat Tanning","Westside","8975 West Charleston Blvd","Las Vegas","NV","89117",36.158,-115.289,5,0.7,1
"410","2CNloBtyyad5UbBGdepVIA",11,5,4,"K Mahogany - By Kee","","8680 W Warm Springs, Ste 3","Las Vegas","NV","89148",36.175,-115.136,6,0.4,1
"411","2CabGE-ZFsKrw5Ke_mNsaw",11,5,2,"Mike the Hair God","Spring Valley","4001 S Buffalo Dr, Ste 101","Las Vegas","NV","89147",36.1165,-115.261,10,2.8,1
"412","2CedPiOUmRGT-2iqR0kG7Q",10.1428571428571,7,2,"Arizona Hair Co","","9390 West Westgate Blvd, Ste D-102B","Glendale","AZ","85305",33.5344,-112.261,7,0.3,1
"413","2D3IgP6Bu28GxoNXBrChaQ",14,7,2,"Walgreens","Centennial","6825 N Durango Dr","Las Vegas","NV","89149",36.285,-115.289,4,3.5,1
"414","2DTD_HUJ9cRARuvjXYrCpw",9.33333333333333,6,3,"The UPS Store","","10632 N Scottsdale Rd","Scottsdale","AZ","85254",33.5837,-111.926,8,0.5,1
"415","2DTdx7V0F9IAS7sZQuwylA",9.42857142857143,7,2,"Pearl Nail Salon","Squirrel Hill","5829-5831 Forward Ave","Pittsburgh","PA","15217",40.4296,-79.9225,9,6.2,1
"416","2DpB16ZgO7ZEtXKl8u9XDg",7.4,5,6,"Andrea Minor","","170 S Green Valley Pkwy, Ste 100, Sola Salons at The District","Henderson","NV","89012",36.0216,-115.082,10,2,1
"417","2EjSjsJhAIFA6o6jDZLT4A",9.66666666666667,6,4,"V's Barbershop","","1 E Washington St, Ste 270","Phoenix","AZ","85004",33.448,-112.073,8,4.9,1
"418","2F8povaKEaqieQhzFSKwQg",9.4,5,2,"Glam","Shadyside","802 S Aiken Ave","Pittsburgh","PA","15232",40.4509,-79.9356,9,1.2,1
"419","2FQ4fhO6_gXCYRDsw5wtQw",9.57142857142857,7,2,"Vip Nails","Sunrise","6520 E Lake Mead Blvd, Ste 103","Las Vegas","NV","89156",36.1967,-115.03,7,2.3,1
"420","2GfFvsSxiuv7vow8IFmC6g",8,7,2,"Skin Magic","","10565 N 114th St, Ste 116","Scottsdale","AZ","85259",33.5818,-111.833,10,0.4,1
"421","2HBvpnAIbw2H08Ptcv3I2g",7.5,4,2,"Cool and Cute Nails","","6657 Odana Rd, Ste 8","Madison","WI","53719",43.0565,-89.4962,8,0.5,1
"422","2HVhVNyuRjugTulANXJX_w",10.2857142857143,7,2,"Espres Nails and Spa","","18078 Royalton Rd","Strongsville","OH","44136",41.3148,-81.8281,4,3.5,1
"423","2I4yIkjTzY2PGcwdBxL42Q",6,6,2,"CocoHut Hair Bar","","1714 W Guadalupe Rd, Ste 207","Gilbert","AZ","85233",33.3657,-111.826,10,0.3,1
"424","2IqODXx1v_CwIKT57Xvp6Q",9.42857142857143,7,2,"Razor Sharp Barber Shop","","6849 W Flamingo Rd","Las Vegas","NV","89103",36.1141,-115.242,7,3.1,1
"425","2JPYp1ULfO-DigihEJwBHQ",9,5,2,"The Barber Lounge","Westside","1123 S Rainbow Blvd","Las Vegas","NV","89146",36.1581,-115.245,8,0.4,1
"426","2JflQtoNTOIE4x4dVW1vXQ",13.1428571428571,7,4,"Massage Envy - Chandler - Fulton Ranch","","4985 S Alma School Rd","Chandler","AZ","85248",33.2348,-111.857,5,1.8,1
"427","2JkjAiirsQdC5PTqM_d31w",8.71428571428571,7,4,"Sir Barbershop","","15425 S 48th St, Ste 108","Phoenix","AZ","85044",33.3067,-111.98,9,3,1
"428","2Jwp4i5pT-Q1iYWzZPWwtQ",9,7,5,"Stylez By Gary","","4727 E Cactus Rd, Ste 100, Studio 12","Phoenix","AZ","85032",33.5964,-111.98,10,2.2,1
"429","2K5AxPt2YEUDMsFUl_1yGQ",12,7,3,"Lavish Spa","Chinatown","5700 Spring Mountain Rd","Las Vegas","NV","89146",36.1265,-115.219,9,3.6,1
"430","2Knpi584dkRpyz65U7n2-A",8.5,6,2,"D Art Nails By Diane","","9286 Market Sq Dr, Ste 17","Streetsboro","OH","44241",41.2456,-81.3488,8,0.9,1
"431","2L0tw_sugAtwhQWirE7RZg",8.57142857142857,7,3,"Friendly Barber Shop","Anthem","10895 S Eastern Ave, Ste 170","Henderson","NV","89052",35.9938,-115.102,9,4.5,1
"432","2MkyQ4fYMS7BLaBQeYNtYQ",10.4285714285714,7,3,"Ulta Beauty","","1450 N Litchfield Rd","Goodyear","AZ","85395",33.4626,-112.361,4,7.3,1
"433","2N4Z5GGofe3SQEFSoP9ncg",9.16666666666667,6,2,"Asian Nails","","38 S Aurora Rd","Aurora","OH","44236",41.3163,-81.3493,9,0.3,1
"434","2N6geaTHR3g7RW-V23FNOQ",9.42857142857143,7,3,"Decor Nails & Spa","South Park","5110 Park Rd, Ste 2L","Charlotte","NC","28209",35.1611,-80.8493,8,7.2,1
"435","2NHKxgpci0veHamuDc0PCg",10,5,6,"Peels and Products","","10401 N Scottsdale Rd","Scottsdale","AZ","85253",33.581,-111.926,10,0.4,1
"436","2NMJ4SUeYSaOhLrox-CALA",9.71428571428571,7,2,"The Nail Boutique","","16 W Horizon Ridge Pkwy, Ste 110","Henderson","NV","89012",36.0115,-114.992,7,1.9,1
"437","2NczcJyFjRRDEsnoZMbPgw",10,5,3,"Illusion Unlimited Salons","","5715 Broadview Rd","Parma","OH","44134",41.406,-81.6911,10,1,1
"438","2RQHE_AcB-l2-IKD8bFlEA",9.42857142857143,7,5,"Boutique Brows","","7581 W Lake Mead Blvd","Las Vegas","NV","89128",36.1947,-115.258,10,1.5,1
"439","2R_z-xwaSFjuRAEWKX0oDw",8.83333333333333,6,2,"Gorgeous Glo","Myers Park","1518 E 3rd St, Ste 100","Charlotte","NC","28204",35.2122,-80.8294,7,1,1
"440","2Sis5AL1OuRFj_Mo4thQfA",8,4,6,"Chateau de Cordier Spa","","13610 N Scottsdale Rd, Ste 15-131","Scottsdale","AZ","85254",33.6098,-111.928,8,0.4,1
"441","2TFmNewkeZVUXXrHjfHPAQ",10,7,2,"Desert Nails","","605 Mall Ring Cir","Henderson","NV","89014",36.0649,-115.039,4,3.6,1
"442","2TQxJ4zBHVYm92hybnIiMQ",9,6,2,"Direct Beauty Supply","Chinatown","3545 S Decatur Blvd, Ste B","Las Vegas","NV","89103",36.1254,-115.209,8,3.8,1
"443","2UHGQzf_LCctwidjVKdZvw",10.5714285714286,7,2,"Fancy Foot Spa","","4306 W Northern Ave","Glendale","AZ","85301",33.5538,-112.152,10,0.3,1
"444","2UHtvx1hSbp9R06bCBTgUA",7.66666666666667,6,6,"Reaxtionz Salon & Barber","","1868 E Apache Blvd","Tempe","AZ","85281",33.4151,-111.905,10,1.7,1
"445","2UNEl16onzXuD2j8w-jsBA",6.71428571428571,7,3,"The Nail Box LV","","4011 E Sunset","Henderson","NV","89014",36.0705,-115.086,10,1.2,1
"446","2UUKAgADXH-ESyRdAE0mYA",6.75,4,2,"Scottsdale Skin Needling","","7514 E Monterey, Ste 3A","Scottsdale","AZ","85251",33.4862,-111.919,9,0.9,1
"447","2V41YCaXFOOPLdZm1e3exw",9.2,5,2,"Adam's Barber Shop","","2245 Warrensville Ctr Rd","University Ht","OH","44118",41.4985,-81.5358,10,1,1
"448","2Vn4X68-M52ruCwoFp8XPQ",9,5,2,"Patti Flint, MD, PC, FACS","","1520 S Dobson Rd, Ste 308","Mesa","AZ","85202",33.3874,-111.877,9,0.7,1
"449","2VoxJVzULI3qiE-ohQ4bkQ",14,7,2,"Walgreens","","546 N Grand Ave","Sun Prairie","WI","53590",43.1857,-89.2653,8,0.4,1
"450","2YDtLCjz_glt6-Zv48Hu2w",9.66666666666667,6,4,"Cut Throat Barbershoppe","","7310 E Stetson Dr","Scottsdale","AZ","85251",33.4997,-111.924,9,11.9,1
"451","2YE6MbY-zZ46I6MhbB44Fw",10.1666666666667,6,2,"R-Nails","","4236 Highway 49 S","Harrisburg","NC","28075",35.3223,-80.6475,8,0.4,1
"452","2YuEeB5qwof1GJ150eNcZA",11.4285714285714,7,2,"Philip Pelusi","","100 Robinson Center Dr","Pittsburgh","PA","15205",40.4547,-80.1574,7,0.3,1
"453","2ZnybrfhN8UFiMXtEamf0g",7.8,5,5,"Ibi David Salon-Spa","","30590 Center Ridge Rd","Westlake","OH","44145",41.4241,-81.9591,9,0.6,1
"454","2_D3VDsyzrHrVeT1ebzAMQ",8.71428571428571,7,2,"Tip Top Nail Salon I","","1933 W Main St","Mesa","AZ","85201",33.4132,-111.874,3,1.2,1
"455","2_RmQxF3if15GA_S-ncJog",6.42857142857143,7,2,"Beatrice Keller Clinic Dermatology","","14506 W Granite Valley Dr, Ste 124","Sun City West","AZ","85375",33.6622,-112.373,6,0.5,1
"456","2_gVD4XlAfq1d1biOs52bw",7,7,2,"Walgreens","","10710 W Mcdowell Rd","Avondale","AZ","85392",33.465,-112.291,4,1.8,1
"457","2a7BBQ1YMCCeQo8uoEUJ7Q",12.4285714285714,7,4,"Celebrity Tanning","","6350 W Bell Rd, Ste 6350","Glendale","AZ","85308",33.6393,-112.196,9,1.9,1
"458","2aFGrMH67AImrssv6s0oUw",6.8,5,6,"HiBrou","","1121 Boyce Rd, Suite1900","Pittsburgh","PA","15241",40.319,-80.1113,10,0.5,1
"459","2aJxre62sr4R98c7_Cfr0w",9.14285714285714,7,4,"Chicsincity","Southwest","6030 W Windmill Ln, Unit C","Las Vegas","NV","89139",36.0426,-115.225,9,4,1
"460","2aRJgbY8ocrrOCqCLoIVvA",8.83333333333333,6,2,"Nails & Polish","","5270 Center Rd","Brunswick","OH","44212",41.2365,-81.8758,6,0.4,1
"461","2avBf8USTY7TTixifD-1Rg",9.83333333333333,6,2,"Liz Nails","","13896 Cedar Rd","University Heights","OH","44118",41.5011,-81.5397,3,0.7,1
"462","2axaOfAJDWOX4HQRDyEG2A",9,6,5,"Anastasia's Crown Esthetic Services","East Liberty","5921 Baum Blvd","Pittsburgh","PA","15206",40.4605,-79.9272,9,1.2,1
"463","2bNpfhw9siK618jd9efbXg",12.7142857142857,7,2,"Palm Beach Tan","","8422 West Thunderbird Rd, Ste 101","Peoria","AZ","85381",33.6114,-112.24,6,1.3,1
"464","2bgAq3OG1mcpkZgwVuF9_w",9.42857142857143,7,2,"Belle Nails","","8345 W Glendale Ave, Ste 102","Glendale","AZ","85305",33.5371,-112.239,8,0.8,1
"465","2eOC0g-djmdW4s3Xr5tvlw",8.5,6,3,"Define Permanent Makeup Academy & Studio","","209 E Baseline Rd, Ste E-108","Tempe","AZ","85283",33.3778,-111.936,10,0.9,1
"466","2ep5qQUYL0mTx5CanTAL2w",8.66666666666667,6,5,"Kharizma Salon and Day Spa","","748 S Racetrack Rd","Henderson","NV","89015",36.0167,-114.951,7,1.7,1
"467","2g6Q9kJwnUCFo1cs2qgSUQ",8,7,3,"Salon 914","Starmount","8201 Arrowridge Blvd, Ste 114","Charlotte","NC","28273",35.1322,-80.9098,7,0.3,1
"468","2gp8qIL4UhrhjBnFX5CG7A",9,3,2,"Nails By Gaylee","","695 E Colter St","Phoenix","AZ","85012",33.5126,-112.065,8,0.7,1
"469","2gzGsVK2slWTW8r91YXtJQ",10,6,8,"CT Rose Salon and Day Spa","Southeast","2660 E Sunset Rd","Las Vegas","NV","89120",36.0726,-115.114,9,1.9,1
"470","2hkQ5S6L_D7yX3pWtPw2Ww",6.16666666666667,6,5,"Mustang Lashes Las Vegas","Spring Valley","9340 W Tropicana Ave, Ste 14","Las Vegas","NV","89147",36.1015,-115.296,10,1.6,1
"471","2inCuqXmVtQVC7ox5Vcb4g",9.28571428571429,7,2,"Five Star Nail and Spa","","400 Dobys Bridge Rd, Ste 104","Fort Mill","SC","29707",34.9562,-80.8596,7,0.6,1
"472","2jMs4VLH-p_ZVZ9aS-FVEg",7.2,5,4,"Minoli Plastic Surgery Clinic","Southeast","870 Seven Hills Dr, Ste 101","Henderson","NV","89052",35.9963,-115.122,9,2.6,1
"473","2kT-5q2h-117H9BrF6uS3A",9.42857142857143,7,5,"Herbal Nails & Spa -  - Happy Valley","","2501 W Happy Valley Rd, Ste 32-1030","Phoenix","AZ","85085",33.7087,-112.115,7,4.9,1
"474","2ko-knnW48UoabFj4qRJVg",10,6,2,"D & V Nails","","10707 Park Rd, Ste D","Charlotte","NC","28210",35.0902,-80.869,9,1.9,1
"475","2ks-dDzUK-XVopKGFybfIA",8.16666666666667,6,3,"LaserMed Solutions","","777 N Rainbow Blvd, Ste 200","Las Vegas","NV","89107",36.1803,-115.243,3,0.9,1
"476","2ku3Nsf6eIM-7858K2ufLA",9.83333333333333,6,6,"UROn Concept Salon","","2985 Triverton Pike Dr","Fitchburg","WI","53711",43.0168,-89.4298,8,0.4,1
"477","2l65Bn4BZjaoLIRAk088FA",9.57142857142857,7,2,"Superior Nails","","2620 83rd Ave, Ste 106","Phoenix","AZ","85043",33.4248,-112.24,7,1.6,1
"478","2lA73JWUYeBEwe7qoAQWyw",6,7,3,"All Sparkles","","Sola Salon 1940 W Chandler Blvd 5 Az 85224, Ste 9","Chandler","AZ","85244",33.326,-111.875,9,0.9,1
"479","2lAvN0x40Sgg5-rG8WEj3w",10,5,3,"Linda Woodson Dermatology","","305 N Pecos Rd, Ste F","Henderson","NV","89074",36.2112,-115.249,5,4.8,1
"480","2lYMhZL2oHUpOQ2KjR5aJQ",8.57142857142857,7,5,"Jeniza Nails and Spa","","1805 E Elliot Rd","Tempe","AZ","85284",33.3485,-111.911,8,7.2,1
"481","2mINRT7Po-OOQvnurvoPeg",5.71428571428571,7,2,"Green Heiress Holistic Health","Aspinwall","209 Commercial Ave, Fl 2","Pittsburgh","PA","15215",40.4905,-79.9047,10,0.3,1
"482","2mNm4GjZW_z1L6JKKH4tww",6,5,5,"Sleekskin Aesthetics","","10900 N Scottsdale Rd, Ste 207","Scottsdale","AZ","85254",33.5856,-111.926,10,1,1
"483","2oEXQryBIq6uFpbMWt7mAA",9,7,4,"The Womb Wellness Center","","6200 Som Center Rd","Cleveland","OH","44139",41.3905,-81.4383,10,0.8,1
"484","2ompyGP88KzsQ6SY01d3tg",8.57142857142857,7,2,"UpTown Barbershop","","1515 E Bethany Home Rd, Ste 170","Phoenix","AZ","85014",33.5228,-112.048,10,17.6,1
"485","2qv-Z1em0aEf_KidiOMNoA",10,6,3,"The Naildresser","Southeast","2986 St Rose Pkwy","Henderson","NV","89052",36.0056,-115.118,10,0.3,1
"486","2rwXoPJlVu-PNg24MO2-YA",9.42857142857143,7,5,"Diva Nails","","20945 N Pima Rd, Ste 100","Scottsdale","AZ","85255",33.6728,-111.89,9,4.3,1
"487","2s-Lyf4bWFdMwtqil6YrTA",10.1428571428571,7,4,"Sport Clips Scottsdale","","7730 E McDowell Rd, Ste 106","Scottsdale","AZ","85257",33.4667,-111.914,9,1.5,1
"488","2sOI9rviW6cLFMaBzd_etQ",8,6,3,"Hair & Makeup by C. Ness","","","Sunnyslope","AZ","85020",33.5653,-112.07,10,1.2,1
"489","2swc0fHeenLck3wPaCMUkw",10.1428571428571,7,2,"Precision Cut","","70 S Val Vista Dr","Gilbert","AZ","85296",33.3493,-111.757,9,3,1
"490","2uGqLFmTRq4sDiGtlCg-Jw",10.7142857142857,7,5,"Primp and Blow - A Blow Dry Bar","","10810 N Tatum Blvd, Ste 134","Phoenix","AZ","85028",33.5839,-111.979,8,2,1
"491","2wFsUNeT6ujp9fN4Y8Bhaw",9.83333333333333,6,2,"Real Men's Barber Shop","","23623 N Scottsdale Rd, Ste D","Scottsdale","AZ","85255",33.702,-111.925,9,0.6,1
"492","2wjT98dMGlF_KzZ_r4kW2Q",13.4285714285714,7,1,"Nichole Snashall - Divine Realignment","","1000 Nevada Hwy, Ste 203B","Boulder City","NV","89005",35.975,-114.844,10,0.6,1
"493","2x6HTWUef1S9dv7g0TSjwg",10.5714285714286,7,3,"Skin Lab Tattoo and Piercing","","3422 S Mill Ave","Tempe","AZ","85282",33.3914,-111.94,4,1,1
"494","2xbq764Hdi1MVMEtisqh9A",9.66666666666667,6,2,"Riya's Nails","","22080 Lorain Rd","Fairview Park","OH","44126",41.4414,-81.865,7,2.3,1
"495","2xmKcEm11_64Z0YYd5gXCw",9.42857142857143,7,6,"Bonjour Nail Spa","","11508 Providence Rd","Charlotte","NC","28277",35.053,-80.7708,8,1.8,1
"496","2xr1FLNwWrAHcDbt43RviQ",9.14285714285714,7,5,"AZ-3D Nails & Spa","","3434 W Greenway Rd, Ste 102","Phoenix","AZ","85053",33.6261,-112.132,8,4.4,1
"497","2yHfJW1sooicMTsV-FUywQ",10.1428571428571,7,3,"Fantastic Sams Hair Salons","","15231 N 87th St","Scottsdale","AZ","85260",33.6239,-111.892,6,1.7,1
"498","2zE2VW72hdMPmh3k72hrRg",10.1428571428571,7,3,"Fantastic Sams Hair Salons","","8271 W Union Hills Rd Ste A-101","Glendale","AZ","85308",33.652,-112.235,7,1.5,1
"499","2zFJZKoe0RFrdtWiyrdvyQ",8,5,4,"Model Lace Wigs and Hair","Eastside","4055 Spencer St, Ste 108","Las Vegas","NV","89119",36.1157,-115.129,7,0.5,1
"500","2zl7pG64nnr99GwQsE0cVA",7.8,5,3,"Hair Design by Jenna","","5710 West Bell Rd, Ste 45","Glendale","AZ","85308",33.6393,-112.183,10,1.7,1
"501","3-HRZaa0d2OtK_35v-4wiQ",10.3333333333333,6,7,"The Haven Spa","Orchard Ridge Community","1001 S Whitney Way","Madison","WI","53711",43.044,-89.4737,9,0.9,1
"502","30Vxj-VULRyqzj2eUQgwtA",8.6,5,2,"New Creations Inc","","101 S Tryon St","Charlotte","NC","28202",35.2273,-80.8432,8,0.5,1
"503","30_vjM0mXNFQ_CeeJi3KJQ",9,6,2,"Lily Nails","","3306 Warren Rd","Cleveland","OH","44111",41.4632,-81.8019,7,1.1,1
"504","313j5l0xup6rbhGmSvURiQ",7.5,4,2,"Abundant Health Chiropractic","","4913 S Alma School Rd, Ste 4","Chandler","AZ","85248",33.2356,-111.859,7,0.8,1
"505","3188t5PMa_XLlah-2UBRoA",11.1428571428571,7,3,"European Wax Center","","10625 N. Tatum Blvd, Ste D-115","Scottsdale","AZ","85028",33.5834,-111.977,8,4.2,1
"506","31Jm7-dyPY67lnVzFA8eQA",9.83333333333333,6,2,"Salon Jovon","","8803 Brecksville Rd","Brecksville","OH","44141",41.3223,-81.6261,9,0.4,1
"507","31kmRcQS6SDKI_P0Ycv-VQ",9.57142857142857,7,4,"The Red Door Salon & Spa","","195 Old Litchfield Rd","Litchfield Park","AZ","85340",33.4938,-112.355,8,3.9,1
"508","328dlBvzbEPh8tsPhIaQcw",8,6,2,"Split Endz","","9015 W Union Hills Dr","Peoria","AZ","85382",33.6519,-112.253,7,0.3,1
"509","32dHOqW9-TmQ5TXd4OUW2Q",8.57142857142857,7,2,"Kt's Nails & Spa","","7607 E Mcdowell Rd, Ste 104","Scottsdale","AZ","85257",33.4648,-111.917,9,4.1,1
"510","32jgqj-w9vWKkE3JSx8DAg",3,6,2,"Goodyear Chiropractic","","11 W Van Buren St, Ste 28","Avondale","AZ","85323",33.4495,-112.35,10,2,1
"511","33J20N99zoeTtwrhaWulfg",10.1428571428571,7,6,"Miss T's Beauty Lounge","Shadyside","5865 Ellsworth Ave","Pittsburgh","PA","15232",40.4573,-79.9291,9,9.6,1
"512","33PllEKHR4D0rVBWCUpSig",12.1428571428571,7,2,"Great Clips","Southeast","1850 E Serene Ave","Las Vegas","NV","89123",36.0213,-115.127,7,1.9,1
"513","33pn2XX0L_1HwFMA7Agraw",8.16666666666667,6,5,"Big Primpin","","21639 Ctr Ridge Rd","Rocky River","OH","44116",41.4584,-81.8591,10,2.2,1
"514","34UkrfpoAlXosoDo0HWxZQ",9.5,4,4,"Identity Salon","","963 Beaver Grade Rd","Moon Township","PA","15108",40.5089,-80.2106,4,0.4,1
"515","34yLmmGHY8akF7o3v4j2vQ",10.4285714285714,7,2,"Missha Beauty","","3416 Wilkinson Blvd","Charlotte","NC","28208",35.2256,-80.8973,6,0.4,1
"516","355zu5pFcmXAHLz8PrSqzA",9,6,4,"Studio Mz","","27629 Chagrin Blvd, Ste 101B","Beachwood","OH","44122",41.4627,-81.4829,10,0.4,1
"517","35mJm3bifyrZkZX0_rMa5A",9.5,6,5,"Beautify Spa By International Skin Care","","8180 N Hayden Rd, Ste D-200","Scottsdale","AZ","85258",33.5559,-111.9,8,4.5,1
"518","36-KDa_zePZbTU5oOWpTNQ",8.6,5,5,"Republic Salon","","6645 Mayfield Rd","Mayfield Heights","OH","44124",41.5204,-81.4397,9,0.9,1
"519","369mB3EF28oA_qmHzSviMg",9.2,5,4,"Marilyn's Make-Up Magic","","7425 E Shea Blvd, Ste 105","Scottsdale","AZ","85260",33.5814,-111.921,10,2.6,1
"520","36cByhAPNsbUIuJ59oUVGA",6.83333333333333,6,3,"Laser By Christine","","5777 S Rural Rd, Ste 5","Tempe","AZ","85283",33.3708,-111.928,10,1.7,1
"521","36hVPtS0GAoVMw13IqEIDA",7,5,3,"Bronzmopolitan","","15811 N Frank Lloyd Wright Blvd, Ste 125","Scottsdale","AZ","85260",33.6301,-111.889,10,4.8,1
"522","36hpvKWCT8_1kM8GrHIzMQ",9.83333333333333,6,2,"Diva Nails","","2508 Village Green Pl","Champaign","IL","61822",40.0817,-88.2963,9,1,1
"523","373HGZUJm47MupH8QBx8Zg",12,7,2,"West Coast Tattoo Parlor","Southeast","9151 S Las Vegas Blvd, Ste 320","Las Vegas","NV","89123",36.0234,-115.175,10,8.4,1
"524","378jQSEkVR5xW4OJNzdENw",9.28571428571429,7,4,"Signature Nails and Spa","","4055 S Arizona Ave, Ste 5","Chandler","AZ","85248",33.2464,-111.839,5,1.9,1
"525","39YKi45PetO0UcQrG8Sncw",8.5,6,2,"Wisemagic Tattoo","","7126 E Shea Blvd","Scottsdale","AZ","85254",33.5824,-111.927,9,5.1,1
"526","3A1Mz2AZ_bbyjAe3umHJlg",10.5714285714286,7,5,"Primp and Blow","","2560 W Chandler Blvd, Ste 4","Chandler","AZ","85224",33.3067,-111.889,8,1.6,1
"527","3A9blBRRHiO5HPr0nH_YNg",8,5,2,"Body Resonance Myofascial Wellness Center","Spring Valley","8724 Spanish Ridge Ave, Ste 120","Las Vegas","NV","89148",36.089,-115.282,10,3,1
"528","3AgIRb50RRbwvI54tAhlEA",8,6,2,"Restoring Balance","","44 E Main St, Ste 407","Champaign","IL","61820",40.1176,-88.2414,10,0.6,1
"529","3AhneMYvRxxfCPYXc41Hrg",10.2,5,2,"Typh's Braid Creations","","7146 E Independence Blvd","Charlotte","NC","28227",35.1633,-80.7412,5,0.4,1
"530","3BBkhChwKTEx9l83bIl1ng",8.83333333333333,6,3,"Dean of Shadyside Salon","Shadyside","5404 Centre Ave","Pittsburgh","PA","15232",40.4559,-79.9382,8,7.4,1
"531","3BLCQLBwKU3glnfmTDjcdw",9.14285714285714,7,2,"Talk Nail and Spa","","6534 W Indian School Rd","Phoenix","AZ","85033",33.495,-112.202,8,3,1
"532","3BabScKEHlgIFDlkJAErBg",8,5,2,"Smile Arizona Dentistry","","8147 E Evans Rd, Ste 1","Scottsdale","AZ","85260",33.6158,-111.906,6,1.3,1
"533","3BcU8mz0eHjiqSb6zE5FLw",12.8571428571429,7,3,"Ultra Tan","","1750 Highway 160 W, Ste 109","Fort Mill","SC","29708",35.0353,-80.9708,7,0.5,1
"534","3D4boCjQffC-eVbjsujaTQ",9.66666666666667,6,2,"Lovely Nails","Rolling Meadows","4682 Cottage Grove Rd","Madison","WI","53716",43.0844,-89.2998,7,0.5,1
"535","3DSR6qWzNsi0Fr5tHD8KyA",12.2,5,5,"Jennifer's Salon","","7345 E Shoeman Ln","Scottsdale","AZ","85251",33.5005,-111.922,10,0.7,1
"536","3DvBQaIck-10l_nHAneJ0A",9.71428571428571,7,4,"Fantastic Sams Hair Salons","","6291 McKee Rd","Fitchburg","WI","53575",43.0156,-89.4799,7,0.3,1
"537","3E2njfpfSdkBrsR-fY8h4A",8.33333333333333,6,4,"Pure Beauty Salon & Spa","Downtown","355 Fifth Ave, Ste 200","Pittsburgh","PA","15222",40.4404,-79.9987,7,0.5,1
"538","3EEt7hz9oLceKb_iIziClw",9.71428571428571,7,2,"Regal Nails","Southeast","6005 S Eastern Ave","Las Vegas","NV","89119",36.0803,-115.122,6,0.7,1
"539","3ETvSLwjRQ5r3Wx-40_Ivg",9.5,6,4,"Salon G","","4960 S Gilbert Rd, Ste 6","Chandler","AZ","85249",33.235,-111.792,9,3.7,1
"540","3FRIZsRrRnm3WTMCRSnB_w",9.8,5,5,"Indulgence Salon","Derita","1530 Overland Park Ln, Ste 1-101","Charlotte","NC","28262",35.3177,-80.7721,9,1.1,1
"541","3G0SJcRuHaW8kLb9Q19Wkw",9.57142857142857,7,4,"Avenue Nails","","55 E Horizon Ridge Pkwy, Ste 140","Henderson","NV","89002",36.0088,-114.993,4,3.9,1
"542","3GlemodptjCmWT20kZR3mw",12.8571428571429,7,2,"Tan Republic - Tropicana","","4965 West Tropicana Ave, Ste 108","Las Vegas","NV","89103",36.0993,-115.209,8,1.3,1
"543","3HYlc_GLCADO8k7P-Hk5hg",9.83333333333333,6,2,"Hair I Am Salon Studio","","11200 W Wisconsin Ave, Ste 1","Youngtown","AZ","85363",33.6035,-112.301,9,1.4,1
"544","3HcEyh8gJ3j7h5FYRjNWFg",9.57142857142857,7,2,"My Nail Spa","","19423 R H Johnson Blvd, Ste 123","Sun City West","AZ","85375",33.6687,-112.369,7,2.2,1
"545","3Hz9nRYehXbfDcSOyuZ7Uw",9,7,3,"Grand Avenue Tattoo","","2134 W Monte Vista Rd","Phoenix","AZ","85009",33.4712,-112.106,10,0.6,1
"546","3I23nQZ6k6U2G1NKpTpfhA",11.8571428571429,7,2,"Comfort Foot","","1116 S Dobson Rd, Ste 105","Mesa","AZ","85202",33.3944,-111.876,8,2.9,1
"547","3Jdn2BBzNBjtCuHHbYxmyA",8.8,5,6,"Salon Embellish","","3508 N 7th St","Phoenix","AZ","85014",33.4888,-112.066,9,4.5,1
"548","3Jf6NdoBF0RIyMuni2Xiag",7.33333333333333,6,2,"Transitions Barbershop","Junction Ridge","610 Junction Rd, Ste 209","Madison","WI","53717",43.0732,-89.5269,10,0.3,1
"549","3JgHBYltzNEHwpA6h9ekTg",9.57142857142857,7,5,"Signature Nails & Spa","Spring Valley","10120 W Flamingo Rd, Ste 3","Las Vegas","NV","89147",36.1165,-115.313,8,8.9,1
"550","3KDzLREC-dxMkGAmt8Mcgw",7.85714285714286,7,2,"Exceptional Hair Designs By Pamela Hannam","Spring Valley","Envogue Salon","Las Vegas","NV","89147",36.1164,-115.297,9,0.8,1
"551","3KPVfWCBdIinCcpLh5vOfA",9.8,5,2,"Diviniti Hair Salon","","15080 Idlewild Rd, Ste H","Matthews","NC","28104",35.122,-80.654,6,0.4,1
"552","3Kgnq_9O0Rv1zpVZSvu_xw",7.8,5,4,"METHOD Salon & Barber","Aspinwall","207 Commercial Ave","Pittsburgh","PA","15215",40.4905,-79.9048,10,0.3,1
"553","3LF3HqwhUJYT9ma48AdSiw",9.42857142857143,7,6,"Carmen Carmen Prestige Salon & Spa at Belk","South Park","4400 Sharon Rd, Fl 4","Charlotte","NC","28211",35.154,-80.8319,9,1.1,1
"554","3LjjCD0yIksnwkyo-8YUBQ",7.5,6,2,"Straight Razor Designs","","23 Public Sq, Ste L-1","Median","OH","44256",41.1381,-81.864,7,1.4,1
"555","3LtBbiCfZiRd_32RlbQInQ",8,4,2,"Megan Trivette","","","Las Vegas","NV","89101",36.1697,-115.124,10,0.9,1
"556","3MBON3dW2a1NKjgo9H780Q",9,5,3,"Anson Edwards & Higgins Plastic Surgery Associates","Spring Valley","8530 W Sunset Rd, Ste 130","Las Vegas","NV","89113",36.0714,-115.278,9,5.4,1
"557","3MI2dz7LAR4qN67qdbt6HA",9.28571428571429,7,4,"18|8 Fine Men's Salon - Ocotillo","","1155 W Ocotillo Rd, Ste 7","Chandler","AZ","85248",33.2467,-111.867,10,2.4,1
"558","3M_9xRE4UfisrRw_iEX00Q",8.8,5,5,"Arthur M. Cambeiro, MD","Eastside","3186 S Maryland Pkwy","Las Vegas","NV","89109",36.1332,-115.136,10,1.1,1
"559","3NCnsa2MLUXiJ8YauUMFoA",7.66666666666667,6,2,"Black Sails Tattoo","","1400 S Mcclintock Dr, Ste 7","Tempe","AZ","85281",33.4128,-111.909,10,2,1
"560","3NX8JdSYD22O_b8hlNZxYQ",8.71428571428571,7,2,"A Cut Above Hair Studio","Centennial","6530 N Buffalo Dr, Ste 110","Las Vegas","NV","89131",36.2807,-115.265,8,4.1,1
"561","3OasraD_TKCqLWc724DDUw",7.4,5,4,"All Pro Barber Shop","","2344 E Baseline Rd, Ste 103","Mesa","AZ","85204",33.3795,-111.783,8,1.7,1
"562","3PPY9xCk0-fEtva_R_Zizg",11.4285714285714,7,2,"Great Clips","","1320 W Elliot Rd, Ste 105","Tempe","AZ","85284",33.3495,-111.96,6,1.2,1
"563","3QGsWq_fEKzUMXKw6MK1jg",9,5,4,"Arizona Eye Institute & Cosmetic Laser Center","","19052 N R H Johnson Blvd","Sun City West","AZ","85375",33.6577,-112.353,8,2.1,1
"564","3R7iBsIKQF0qvDvx8uTYfA",8.85714285714286,7,2,"Kim's Nails","","2990 Cahill Main","Fitchburg","WI","53711",43.0183,-89.4224,9,1.6,1
"565","3RtqDazn1d5PoFXZ4v94wg",9,7,3,"Lavender's Day Spa","","17173 N Litchfield Rd, Ste 30","Surprise","AZ","85374",33.6401,-112.358,7,2.5,1
"566","3S5bhV0K2FoqIOjIuIEmcA",8.71428571428571,7,5,"Sweet Nails","Spring Valley","8665 W Flamingo Rd, Ste 122","Las Vegas","NV","89147",36.1138,-115.281,9,7.7,1
"567","3SwWrjosl7nOjYTM7pk8og",9.42857142857143,7,4,"Ovation Nails and Spa","","23271 N Scottdale Rd","Scottsdale","AZ","85255",33.6973,-111.925,8,3.4,1
"568","3UKEwUPyNxPTLAVsw4nWEA",10.4285714285714,7,2,"MasterCuts","","5000 S Arizona Mills Cir # 108, Arizona Mills","Tempe","AZ","85282",33.3849,-111.964,8,1.8,1
"569","3VI6vKcz3nHnaa37EN2i0A",9.16666666666667,6,5,"Epoque Salon","Anthem","10271 S Eastern Ave, Ste 107","Henderson","NV","89052",36.0029,-115.11,8,1.6,1
"570","3VpRikz_I48e-7m0Yy-G7Q",11.5714285714286,7,2,"Elements Massage","","630 E Bell Rd, Ste 102","Phoenix","AZ","85022",33.642,-112.066,9,4.3,1
"571","3Wq2yT3elctAjDqb8kMraQ",8.85714285714286,7,2,"Vision Yoga & Wellness","Ohio City","1861 W 25th St","Cleveland","OH","44113",41.486,-81.7045,9,2.4,1
"572","3XD1FGwIR8pBcSHdWyVOEw",12,7,2,"Phoenix Mobile Massage","","14009 E Quail Track Rd","Scottsdale","AZ","85262",33.7319,-111.778,10,0.3,1
"573","3XlJ5MXBQDxN_c54dGLRiQ",9.14285714285714,7,3,"Kelly D. Nails & Spa","","6135 N 35th Ave, Ste 127","Phoenix","AZ","85017",33.5252,-112.13,6,2,1
"574","3YReCcaCFkF4jy9Ey-Ms5Q",11.5714285714286,7,2,"Elements Massage","","6204 N Scottsdale Rd, Ste 103","Scottsdale","AZ","85253",33.5298,-111.928,8,1.5,1
"575","3ZPlK9cFXYsKIVMgdT4yVA",13,7,2,"REVIV - Las Vegas","The Strip","3799 S Las Vegas Blvd","Las Vegas","NV","89109",36.1034,-115.169,9,5.8,1
"576","3_QNAH8yVzY0sBPftWyNhQ",11,7,3,"The Foot Spa","Chinatown","5030 Spring Mountain Rd, Ste 10","Las Vegas","NV","89146",36.127,-115.21,8,65.4,1
"577","3_SA-8Y7geULcNHATYumEQ",8.85714285714286,7,2,"Aloha Quality Hair Salon","Southwest","7910 S Rainbow Blvd, Ste 115","Las Vegas","NV","89139",36.0439,-115.242,9,6.4,1
"578","3_r9NM_6anMWEmgajb7h1Q",8.57142857142857,7,4,"PV Barbers","","3202 E Greenway Rd, Ste1603","Phoenix","AZ","85032",33.6269,-112.013,9,1.7,1
"579","3ajK8gw_jtnOxT8CuQKTtQ",12.8571428571429,7,3,"Massage Envy - Pleasant Hills PA","","595 Clairton Blvd","Pittsburgh","PA","15236",40.3326,-79.9441,9,0.3,1
"580","3akwOxFShsR9Gze_uBq6fg",10.4285714285714,7,3,"The Body Shop","","4550 E Cactus Road Space 178","Phoenix","AZ","85032",33.6022,-111.984,8,1.1,1
"581","3b3R9vloezrbRwhz9hx6Uw",11,6,6,"Younger You Clinique","","10245 E Vía Linda Blvd, Ste 109","Scottsdale","AZ","85258",33.574,-111.861,10,1.2,1
"582","3b95c7v0sR0s2VlBUQ0Dpw",10,7,2,"LunchboxWax North Scottsdale","","23271 N Scottsdale Rd, Ste A110","Scottsdale","AZ","85255",33.6974,-111.923,10,5.7,1
"583","3bCv726G2u_emyhnxtrGEA",4.14285714285714,7,2,"Sparkledragon's Magical Emporium","Beechview","2120 Broadway Ave","Pittsburgh","PA","15216",40.4044,-80.0302,10,0.5,1
"584","3bHx12bCQFr-BBUs3arJ-w",10,6,2,"Concord Nails Spa","","8455 Pit Stop Ct NW, Ste 115","Concord","NC","28027",35.3746,-80.726,8,1.4,1
"585","3b_TnsUeOeQEJsaQ31W3pg",8.2,5,3,"Hairstyles by Jane","","1714 W Guadalupe Rd","Gilbert","AZ","85233",33.3652,-111.827,10,0.4,1
"586","3caAjQupiFcX209GaLq9Lw",9.42857142857143,7,2,"Lami Nails Spa","Anthem","2230 W Horizon Ridge Pkwy, Ste 100","Henderson","NV","89052",36.0066,-115.085,10,3.2,1
"587","3clNGTYOHTnDUZPUnihL3g",7.33333333333333,6,2,"SIX16 Body Piercing","Lawrenceville","4417 Butler St","Pittsburgh","PA","15201",40.4721,-79.9597,10,3.7,1
"588","3d5e5ogLl0fDGZfaCBNQrg",11.1428571428571,7,3,"702 Nail Lounge","Anthem","10271 S Eastern Ave, Ste 114","Henderson","NV","89052",36.003,-115.111,9,29.1,1
"589","3dLHLQ7KxPv7AAejrL5ukw",10.2857142857143,7,10,"Humble Bee Beauty Studio","Southwest","7355 S Buffalo Dr","Las Vegas","NV","89113",36.0538,-115.264,10,5.4,1
"590","3drebajBhZOURJX-Jzwx1w",8.6,5,4,"West Park Beauty Salon","","17100 Lorain Ave","Cleveland","OH","44111",41.4507,-81.8155,10,0.9,1
"591","3evgzCQKYNOgRCxnxLnFYQ",13.8571428571429,7,2,"Discount Drug Mart","","1763 E Main St","Kent","OH","44240",41.1554,-81.3304,8,0.3,1
"592","3gEvZwJO5eoLKVeLDuQu8w",9.57142857142857,7,2,"Nail Depot & Spa","","6030 W Behrend Dr, Ste 131","Glendale","AZ","85308",33.6666,-112.188,6,2.8,1
"593","3hVNB2plzW9c3UY3f7ur8Q",10.4285714285714,7,2,"Tisun Beauty","Steele Creek","9011 S Tryon St","Charlotte","NC","28273",35.1354,-80.938,9,1.3,1
"594","3hwX3hWFJaH1Ehd1eiJDfw",9.42857142857143,7,2,"The Lady Luck Tattoo Gallery","","961 E Guadalupe Rd","Tempe","AZ","85283",33.3637,-111.927,9,5.2,1
"595","3i2CjqzyngAe1KELoetX7Q",8,6,2,"Poppy's Home Decor","","7143 E Southern Ave, Ste 101","Mesa","AZ","85209",33.3925,-111.677,6,0.6,1
"596","3iC-4jQ5BPSI-7lMbLmUCA",9.57142857142857,7,5,"Wild Nails","","4955 E Craig Rd, Ste 4","Las Vegas","NV","89115",36.24,-115.066,7,1.1,1
"597","3iE_bTVCr1IP3rvzrvu-aQ",13,7,4,"Erika Hurst","","4210 E Baseline Rd","Mesa","AZ","85206",33.3797,-111.742,10,0.8,1
"598","3iewRRYvMWqXEmpQLDmJBg",8.2,5,2,"T L Jones Salon","","2918 Crossing Ct","Champaign","IL","61822",40.0851,-88.2944,10,0.7,1
"599","3j7QkwG6JwMNNsbcGt0dTw",10.6666666666667,6,3,"Seven Sins Tattoo","","4309 W Tompkins Ave","Las Vegas","NV","89103",36.1046,-115.198,10,0.8,1
"600","3jJ836RF3OBFly_Ry9xojQ",9.33333333333333,6,4,"Suite One Salon","Westside","9931 W Charleston Blvd, Ste 1","Las Vegas","NV","89117",36.1578,-115.313,9,5.8,1
"601","3jPnTtzE8etuXDzPl4Q3bw",12,7,2,"Nancy Kartoon","","1600 W Camelback Rd","Phoenix","AZ","85015",33.5099,-112.093,9,0.6,1
"602","3kUqNxO1rkDDb89GAfyNgw",8.28571428571429,7,3,"Evolve Wellness Spa","Shadyside","228 S Highland Ave","Pittsburgh","PA","15206",40.458,-79.9254,9,6.6,1
"603","3l9gS6D_S6a2gNBZ6grBkA",9,5,2,"Platinum Cuts Barber Shop","Southeast","5485 S Eastern Ave","Las Vegas","NV","89119",36.0901,-115.119,5,0.5,1
"604","3mpv8g3B8wbI8pa-4-Mdwg",7.85714285714286,7,3,"Advanced Restorative Therapy","","7950 E Acoma Dr, Ste 207","Scottsdale","AZ","85260",33.618,-111.909,10,0.4,1
"605","3n3DdNTPxbCrXFby2uxmeg",11.5714285714286,7,2,"Elements Massage","Anthem","2970 Saint Rose Pkwy, Ste 130","Henderson","NV","89052",36.0059,-115.117,7,5.5,1
"606","3nD_gIjT2jai-U23TOEbUg",9,6,5,"Enhanced Image Med Spa","","7942 W Bell Rd, Ste 2","Glendale","AZ","85308",33.6383,-112.23,10,1.4,1
"607","3o8lABHRO9ipnIUW4mUGqw",9.28571428571429,7,2,"4U Nails & Spa","","121 S Mattis Ave","Champaign","IL","61821",40.1162,-88.2769,7,0.5,1
"608","3pG4HRUL1sv1UaxWIEj6Rg",9.66666666666667,6,5,"Epic Salon","","3120 S Gilbert Rd, Ste 1","Chandler","AZ","85249",33.261,-111.79,8,5.7,1
"609","3pnvI_eEHzEWQJmXdcJ3rw",7,6,5,"The Thread and Lash","","633 E Ray Rd","Gilbert","AZ","85296",33.3204,-111.776,10,1.4,1
"610","3r5RUTbxIqOlQKKb9KHrXQ",8.6,5,2,"Mirage Salon & Boutique","","9568 Roberta Rd","Harrisburg","NC","28075",35.3222,-80.6485,8,0.5,1
"611","3rG7LeEXtC6C2ihRbn40LA",8,6,4,"Kelly Nail & Spa","","32619 N Scottsdale Rd, Ste 107","Scottsdale","AZ","85266",33.7816,-111.922,5,1.5,1
"612","3rJJeMOkVi_wEura5UCQqw",14,7,4,"Massage Envy - Rock Spring","","7175 W Lake Mead Blvd, M03-00168","Las Vegas","NV","89128",36.1956,-115.249,6,3.4,1
"613","3rQvXPkvIZM7NBOGMyvHww",10,7,2,"Sport Clips","","1135 Stonecrest Blvd","Fort Mill","SC","29708",35.047,-80.9958,8,0.4,1
"614","3rgUFMgimv9twiyFxucUhg",9.42857142857143,7,2,"Lee's Nails","Westside","8465 W Sahara Ave, Ste 112","Las Vegas","NV","89117",36.143,-115.276,9,2.6,1
"615","3rptIkeGoVRdPF4v6omLOg",9.71428571428571,7,6,"Sunless Boutique","The Lakes","9921 Mahogany Grove Ln","Las Vegas","NV","89117",36.1374,-115.313,10,2,1
"616","3s1G5Av7fVZ_XHH7kLfc8A",8.71428571428571,7,5,"Le Nails & Spa","","1720 W Horizon Ridge Pkwy, Ste 120","Henderson","NV","89012",36.0115,-115.063,9,6,1
"617","3sDFMC9dA9pBkGEP3UD9NA",9.42857142857143,7,2,"Guy and Gal Salon - Chandler","","2040 S Alma School Rd, Ste 6","Chandler","AZ","85286",33.2748,-111.86,8,1.1,1
"618","3spvAlTU_H0EQyJhJ9kaqQ",8.8,5,4,"Nail'd it! Hair & Nail Salon","","13802 N Scottsdale Rd, Ste120","Scottsdale","AZ","85254",33.6118,-111.927,9,0.8,1
"619","3u-LmqeJBYNe6JZ18GrM_Q",9.66666666666667,6,5,"Ann Reed Waxing & Skin Care","","7345 E Shoeman Ln","Scottsdale","AZ","85251",33.5005,-111.922,10,2.2,1
"620","3u16hEcqBGg9CnlH6Nf9lA",11.1428571428571,7,3,"Gentle Laser","Westside","3355 S Highland Dr","Las Vegas","NV","89109",36.1285,-115.179,10,0.5,1
"621","3vISB7bi2mIOW_gMeXdLFA",10.5714285714286,7,4,"June Pearl Beauty","","","Scottsdale","AZ","85251",33.4986,-111.922,10,0.7,1
"622","3vfwZkmxVsipUe4jdrkBkg",7,6,3,"Krazy Kats Tattoo & Body Piercing","Cotswold","4435 Monroe Rd","Charlotte","NC","28205",35.1946,-80.785,9,1.7,1
"623","3w1LqiQ4lDE99XtcVzAd9Q",9.66666666666667,6,3,"Park 51 Salon","","10701 Park Rd, Ste F","Charlotte","NC","28210",35.0908,-80.868,5,0.8,1
"624","3wRLZ_j7rtpHsHwszCj6fg",6,7,3,"Arizona Wig Boutique","","7074 E 5th Ave","Scottsdale","AZ","85251",33.4984,-111.929,8,1.7,1
"625","3xEO9oyGqfO_O8eSlxYTBA",8.85714285714286,7,4,"The Spa at Lakeside 2.0","Summerlin","2620 Regatta Dr, Ste 112-114","Las Vegas","NV","89128",36.2075,-115.268,10,11.4,1
"626","3xIqAv3XFV1Zw7JE9agv6w",8.66666666666667,6,2,"Monica Lanter Hairstylist","","9020 S McClintock Dr, Ste 3","Tempe","AZ","85284",33.3324,-111.912,9,1.3,1
"627","3xckG-BBA7_ozunrtFRU3Q",8.5,6,4,"Capretti & Co","","1925 Settlers Ridge Ctr","Pittsburgh","PA","15205",40.4387,-80.1466,10,2.4,1
"628","3zCnPRue9C2O5k7Ed7QGGg",8.85714285714286,7,5,"Magic Brows","Northwest","3250 N Tenaya Way, Ste 102","Las Vegas","NV","89129",36.2199,-115.25,10,2.6,1
"629","3zPmwa_pJDk2VbHBV2QA9g",9,7,2,"NOIR Salon","","25546 N Lake Pleasant Pkwy","Peoria","AZ","85383",33.7156,-112.271,10,0.4,1
"630","4-b9U5jh5mvf7LDnjYmnyg",9,6,3,"Eve African Hair Braiding","Westside","5636 W Charleston Blvd, Ste C","Las Vegas","NV","89146",36.1595,-115.218,8,0.6,1
"631","40_Bs5LCTUsu5ty3TxeryQ",8.6,5,3,"Modern Salon & Spa","First Ward","214 N Tryon St, Ste 200","Charlotte","NC","28202",35.2278,-80.8411,8,3.9,1
"632","412UHs2pYD60QCjQ-OckCA",8.6,5,6,"Flower Power","","1669 Larchmont Ave","Lakewood","OH","44107",41.4781,-81.8168,10,0.3,1
"633","418gUrl8ganxLJkgW6_Q0A",11.2857142857143,7,2,"Elements Massage","","3431 W Frye Rd, Ste 6","Chandler","AZ","85226",33.2958,-111.901,9,3.9,1
"634","41H6zhehn6vY_b0f2JPuwA",8.42857142857143,7,5,"The Lash & Sugar Company","","7040 E Indian School Rd","Scottsdale","AZ","85251",33.4952,-111.929,10,16,1
"635","42gIwNA0m4H_0qGQ_9CYkg",8,4,4,"Sin City Wax","Westside","3310 S Jones Blvd, Ste J","Las Vegas","NV","89146",36.1286,-115.224,9,1.1,1
"636","42jge5SiDoQV8WwGpxaPVw",11.8571428571429,7,2,"Beauty Therapy","Westside","7341 W Charleston Ave, Ste 150","Las Vegas","NV","89138",36.1579,-115.252,10,1.1,1
"637","448_DDog_bRHE6r7D6poAw",8.83333333333333,6,2,"Style by Jen","","3940 N Miller, Ste D, Downtown Scottsdale Hair & Nails","Scottsdale","AZ","85251",33.4937,-111.918,9,1.4,1
"638","44BkUvQ0heALA4irQPYcAg",9,5,4,"Piedmont Plastic Surgery & Dermatology","Ballantyne","5815 Blakeney Park Dr","Charlotte","NC","28277",35.0332,-80.8069,7,1.7,1
"639","44pzzXXYBtbC0QxHFosagw",9.28571428571429,7,4,"Perfect Arch Salon","","313 N Mattis Ave, Ste 106","Champaign","IL","61820",40.1135,-88.246,9,5.4,1
"640","44rhIF2_vdJGdUFduEzwDA",7.2,5,4,"Hair by Heather","","7116 E Mercer Ln, Ste 104, The Urge Salon","Scottsdale","AZ","85254",33.5856,-111.928,9,0.6,1
"641","45AMTDloGhFf2Xld0oZaxQ",11.5714285714286,7,3,"Thai Day Spa","Westside","7871 West Charleston Blvd, Ste 150","Las Vegas","NV","89117",36.1586,-115.263,10,1.1,1
"642","45C_ZWEWelkv0kQMw6-dMQ",10,5,3,"Nappy By Nature","","2618 W Baseline Rd","Mesa","AZ","85202",33.3786,-111.891,7,1.4,1
"643","45_jIa__Kg5PbWwR7ytrcA",8.6,5,2,"Salon Lift","","2795 Front St, Ste C","Cuyahoga Falls","OH","44221",41.1478,-81.4695,10,0.5,1
"644","466ws1Gu2SuCLkpnUwoYGA",9.71428571428571,7,3,"Fantastic Sams","","5546 Camino Al Norte","North Las Vegas","NV","89031",36.2604,-115.154,7,1.4,1
"645","46QWVor8H5eUDNYnx-fMnw",8.42857142857143,7,3,"Chillfit Cryo","","1950 E University Dr","Tempe","AZ","85281",33.4222,-111.903,10,1,1
"646","47GGytn1V2P9N8DQFyaE8w",8.66666666666667,6,5,"Skin Frenzy","","318 E Thomas Rd","Phoenix","AZ","85012",33.4804,-112.069,10,1.5,1
"647","47h0gyvH9zxU0FOo5cPLrQ",9.6,5,4,"Botanical Tans","South Park","6324 Fairview Rd, Ste 160-112","Charlotte","NC","28210",35.1487,-80.8349,10,3.8,1
"648","47muD3p3mYsZGG30BIJw7g",8,5,2,"Skin & Cancer Center of Scottsdale","","10900 N Scottsdale Rd, Ste 506","Scottsdale","AZ","85254",33.5866,-111.927,10,1.4,1
"649","47qzYH9sRO1BfgklEr6WNw",8,5,2,"Public Cuts N Styles","","5835 N 16th St, Ste B","Phoenix","AZ","85016",33.5231,-112.047,10,1.3,1
"650","47v8R_1oTo84e_vst2YKWg",10.8571428571429,7,2,"Great Clips","","1230 E Baseline Rd","Mesa","AZ","85204",33.3794,-111.806,8,0.4,1
"651","487mtOBBHP4maGMFHvjZxg",8,5,5,"Facials By Ann","","15455 N Greenway Hayden Lp, Ste C-14","Scottsdale","AZ","85260",33.6259,-111.92,10,0.8,1
"652","48aL-XZ5tnLdcvfqTa3fMQ",4,5,2,"HealthSource of Chandler","","1445 S Arizona Ave, Ste 12","Chandler","AZ","85286",33.2844,-111.84,10,1.8,1
"653","496tygRfXF-pbvgeHOwijQ",10,6,4,"Nex Level Barbershop III","Southeast","9890 South Maryland Pkwy, Ste 4","Las Vegas","NV","89183",36.0102,-115.135,2,1,1
"654","49RC6OaB3LUo9-7UvAVrfg",9,5,3,"Massage Time","","7137 E Main St, Ste 3","Mesa","AZ","85207",33.4153,-111.677,5,0.3,1
"655","49gG0XaVY7Nirm2Ss7ArHw",7,6,8,"Bashful Lash","","9401 W Thunderbird Rd","Peoria","AZ","85381",33.6093,-112.262,10,0.8,1
"656","4Ast5npg50uPqUvluY3yYw",10.5714285714286,7,3,"Eyebrows R Us","Westside","4530 Meadows Ln, Suite C-2","Las Vegas","NV","89107",36.1716,-115.202,8,1.3,1
"657","4B-d87Ydclg0C8rD6oNqyQ",10.4285714285714,7,2,"Sephora","","3265 W Market St","Fairlawn","OH","44333",41.133,-81.6159,5,0.3,1
"658","4BJJNUQpbkl6G9g-DHT4xw",9.2,5,4,"Studio Taylor On Fairmount","","3463 Fairmount Blvd","Cleveland Heights","OH","44118",41.4867,-81.5553,7,0.3,1
"659","4BJmDc3SxomZi8siCNfU1A",9.4,5,2,"Plush Salon","","9619 N Hayden Rd, Ste 117","Scottsdale","AZ","85258",33.5188,-111.91,9,1.4,1
"660","4BtLjFr4h7HuMBiqeL1hnQ",10.7142857142857,7,2,"Great Clips","","17650 W Elliot Rd","Goodyear","AZ","85338",33.3576,-112.429,5,0.4,1
"661","4C0m3C29UfqWSzJoibvkeA",9.42857142857143,7,2,"Regal Nails","","857 N Dobson Rd","Mesa","AZ","85201",33.4323,-111.865,9,1.1,1
"662","4DIMIo1th3xqykF8tGZ9HA",10,6,4,"Nails, Hair and Tanning","Old Brooklyn","4261 Fulton Rd","Cleveland","OH","44144",41.4409,-81.7225,5,0.6,1
"663","4E5oaWof152dmbZ1FeTYsw",11.1428571428571,7,4,"Hand & Stone Massage and Facial Spa","","31309 N Scottsdale Rd","Scottsdale","AZ","85265",33.7682,-111.924,8,0.9,1
"664","4EBx2_hpS86431Bwf6xegQ",8.83333333333333,6,4,"Galena European Spa","Centennial","8053 N Durango Dr, Ste 110","Las Vegas","NV","89131",36.3081,-115.279,10,0.5,1
"665","4EL3qM2-Aju9Qam0wDkEiA",9.71428571428571,7,4,"Star Nails and Wax","","7582 W Cactus Rd, Ste B3","Peoria","AZ","85381",33.5958,-112.223,8,2.2,1
"666","4EbC7eRHHm1AySGi6pC3Tg",8.71428571428571,7,4,"Ann's Salon","Chinatown","5700 Spring Mountain Rd","Las Vegas","NV","89146",36.1262,-115.219,8,9.3,1
"667","4Ee2q5aYZ46g0qSYx3RXAg",11.1428571428571,7,2,"Great Clips","","749 E Bell Rd","Phoenix","AZ","85022",33.6391,-112.063,9,0.3,1
"668","4EeCBeKWhra4DNPkjjgb6g",9.42857142857143,7,2,"Regal Nails","","18551 N 83rd Ave","Glendale","AZ","85308",33.6508,-112.235,7,0.3,1
"669","4FCdT9Do9KMoPrZL0ZngxA",9.28571428571429,7,2,"Herbal Wellness Center","","4126 W Indian School Rd","Phoenix","AZ","85019",33.4952,-112.147,9,4.9,1
"670","4GBVPIYRvzGh4K4TkRQ_rw",9.83333333333333,6,4,"Options Salon & Spa","","21689 Lorain Rd","Fairview Park","OH","44126",41.4408,-81.8541,10,0.5,1
"671","4GJc_Ls4f2uVptSfFQTL5g",8.28571428571429,7,3,"Fu's Custom Tattoos","NoDa","3200 N Davidson St","Charlotte","NC","28205",35.2469,-80.8055,9,3.5,1
